{
  "type": "FeatureCollection",
  "features": [
    {
      "type": "Feature",
      "properties": {
        "name": "Papaop Well",
        "description": "",
        "agency": "CBP",
        "address": "",
        "city": "Wellton",
        "state": "AZ",
        "zip": "",
        "source": "ancillary",
        "marker-color": "#F0CA4D",
        "marker-size": "medium",
        "marker-symbol": "a"
      },
      "geometry": {
        "type": "Point",
        "coordinates": [
          -113.61517667770386,
          32.555675753684476
        ]
      }
    },
    {
      "type": "Feature",
      "properties": {
        "name": "Grip",
        "description": "",
        "agency": "CPB",
        "address": "El Camino del Diablo",
        "city": "",
        "state": "AZ",
        "zip": "",
        "source": "ancillary",
        "marker-color": "#F0CA4D",
        "marker-size": "medium",
        "marker-symbol": "a"
      },
      "geometry": {
        "type": "Point",
        "coordinates": [
          -113.342707157135,
          32.09807231887793
        ]
      }
    },
    {
      "type": "Feature",
      "properties": {
        "name": "Anomaly",
        "description": "",
        "agency": "CBP",
        "address": "",
        "city": "",
        "state": "AZ",
        "zip": "",
        "source": "ancillary",
        "marker-color": "#F0CA4D",
        "marker-size": "medium",
        "marker-symbol": "a"
      },
      "geometry": {
        "type": "Point",
        "coordinates": [
          -113.42843055725098,
          32.27637048308562
        ]
      }
    },
    {
      "type": "Feature",
      "properties": {
        "name": "Naval Base Ventura County South",
        "description": "",
        "agency": "DOD",
        "address": "311 Main Rd #355",
        "city": "NAS Point Mugu",
        "state": "CA",
        "zip": "93042",
        "source": "ancillary",
        "marker-color": "#F0CA4D",
        "marker-size": "medium",
        "marker-symbol": "a"
      },
      "geometry": {
        "type": "Point",
        "coordinates": [
          -119.1071605682373,
          34.11230199561746
        ]
      }
    },
    {
      "type": "Feature",
      "properties": {
        "name": "Naval Base Ventura County North",
        "description": "",
        "agency": "DOD",
        "address": "Stethem Rd",
        "city": "Port Hueneme",
        "state": "CA",
        "zip": "93043",
        "source": "ancillary",
        "marker-color": "#F0CA4D",
        "marker-size": "medium",
        "marker-symbol": "a"
      },
      "geometry": {
        "type": "Point",
        "coordinates": [
          -119.2092990875244,
          34.15528397373199
        ]
      }
    },
    {
      "type": "Feature",
      "properties": {
        "name": "PCT Test 1",
        "description": "",
        "agency": "CBP",
        "address": "",
        "city": "Mojave",
        "state": "CA",
        "zip": "",
        "source": "ancillary",
        "marker-color": "#F0CA4D",
        "marker-size": "medium",
        "marker-symbol": "a"
      },
      "geometry": {
        "type": "Point",
        "coordinates": [
          -118.269635,
          35.134665
        ]
      }
    }
  ]
}