{
  "type": "FeatureCollection",
  "features": [
    {
      "type": "Feature",
      "properties": {
        "name": "Papaop Well",
        "description": "",
        "agency": "CPB",
        "address": "",
        "city": "Wellton",
        "state": "AZ",
        "zip": "",
        "source": "ancillary",
        "marker-color": "#F0CA4D",
        "marker-size": "medium",
        "marker-symbol": "a"
      },
      "geometry": {
        "type": "Point",
        "coordinates": [
          -113.61517667770386,
          32.555675753684476
        ]
      }
    },
    {
      "type": "Feature",
      "properties": {
        "name": "Grip",
        "description": "",
        "agency": "CPB",
        "address": "El Camino del Diablo",
        "city": "",
        "state": "AZ",
        "zip": "",
        "source": "ancillary",
        "marker-color": "#F0CA4D",
        "marker-size": "medium",
        "marker-symbol": "a"
      },
      "geometry": {
        "type": "Point",
        "coordinates": [
          -113.342707157135,
          32.09807231887793
        ]
      }
    },
    {
      "type": "Feature",
      "properties": {
        "name": "Anomaly",
        "description": "",
        "agency": "CPB",
        "address": "",
        "city": "",
        "state": "AZ",
        "zip": "",
        "source": "ancillary",
        "marker-color": "#F0CA4D",
        "marker-size": "medium",
        "marker-symbol": "a"
      },
      "geometry": {
        "type": "Point",
        "coordinates": [
          -113.42843055725098,
          32.27637048308562
        ]
      }
    },
    {
      "type": "Feature",
      "properties": {
        "name": "Naval Base Ventura County South",
        "description": "",
        "agency": "DOD",
        "address": "311 Main Rd #355",
        "city": "NAS Point Mugu",
        "state": "CA",
        "zip": "93042",
        "source": "ancillary",
        "marker-color": "#F0CA4D",
        "marker-size": "medium",
        "marker-symbol": "a"
      },
      "geometry": {
        "type": "Point",
        "coordinates": [
          -119.1071605682373,
          34.11230199561746
        ]
      }
    },
    {
      "type": "Feature",
      "properties": {
        "name": "Naval Base Ventura County North",
        "description": "",
        "agency": "DOD",
        "address": "Stethem Rd",
        "city": "Port Hueneme",
        "state": "CA",
        "zip": "93043",
        "source": "ancillary",
        "marker-color": "#F0CA4D",
        "marker-size": "medium",
        "marker-symbol": "a"
      },
      "geometry": {
        "type": "Point",
        "coordinates": [
          -119.2092990875244,
          34.15528397373199
        ]
      }
    },
    {
      "type": "Feature",
      "properties": {
        "name": "Etowah County Detention Center",
        "description": "",
        "agency": "ICE",
        "address": "827 Forrest Avenue",
        "city": "Gadsden",
        "state": "AL",
        "zip": "35901",
        "source": "ice",
        "marker-color": "#E37B40",
        "marker-size": "medium",
        "marker-symbol": "i"
      },
      "geometry": {
        "type": "Point",
        "coordinates": [
          -86.0124,
          34.0166
        ]
      }
    },
    {
      "type": "Feature",
      "properties": {
        "name": "Central Arizona Correctional Center",
        "description": "",
        "agency": "ICE",
        "address": "1155 North Pinal Parkway",
        "city": "Florence",
        "state": "AZ",
        "zip": "85132",
        "source": "ice",
        "marker-color": "#E37B40",
        "marker-size": "medium",
        "marker-symbol": "i"
      },
      "geometry": {
        "type": "Point",
        "coordinates": [
          -111.377,
          33.0442
        ]
      }
    },
    {
      "type": "Feature",
      "properties": {
        "name": "Eloy Detention Center",
        "description": "",
        "agency": "ICE",
        "address": "1705 E Hanna Rd",
        "city": "Eloy ",
        "state": "AZ",
        "zip": "85131",
        "source": "ice",
        "marker-color": "#E37B40",
        "marker-size": "medium",
        "marker-symbol": "i"
      },
      "geometry": {
        "type": "Point",
        "coordinates": [
          -111.52,
          32.8177
        ]
      }
    },
    {
      "type": "Feature",
      "properties": {
        "name": "Florence Correctional Center",
        "description": "",
        "agency": "ICE",
        "address": "1100 Bowling Road",
        "city": "Florence",
        "state": "AZ",
        "zip": "85132",
        "source": "ice",
        "marker-color": "#E37B40",
        "marker-size": "medium",
        "marker-symbol": "i"
      },
      "geometry": {
        "type": "Point",
        "coordinates": [
          -111.371,
          33.0371
        ]
      }
    },
    {
      "type": "Feature",
      "properties": {
        "name": "Florence SPC",
        "description": "",
        "agency": "ICE",
        "address": "3250 N. Pinal Parkway",
        "city": "Florence",
        "state": "AZ",
        "zip": "85132",
        "source": "ice",
        "marker-color": "#E37B40",
        "marker-size": "medium",
        "marker-symbol": "i"
      },
      "geometry": {
        "type": "Point",
        "coordinates": [
          -111.379,
          33.0637
        ]
      }
    },
    {
      "type": "Feature",
      "properties": {
        "name": "Adelanto ICE Processing Center",
        "description": "",
        "agency": "ICE",
        "address": "Adelanto East 10400 Rancho Road | Adelanto West 10250 Rancho Road",
        "city": "Adelanto",
        "state": "CA",
        "zip": "92301",
        "source": "ice",
        "marker-color": "#E37B40",
        "marker-size": "medium",
        "marker-symbol": "i"
      },
      "geometry": {
        "type": "Point",
        "coordinates": [
          -117.441,
          34.5592
        ]
      }
    },
    {
      "type": "Feature",
      "properties": {
        "name": "Contra Costa West County Detention Facility",
        "description": "",
        "agency": "ICE",
        "address": "5555 Giant Highway",
        "city": "Richmond",
        "state": "CA",
        "zip": "94806",
        "source": "ice",
        "marker-color": "#E37B40",
        "marker-size": "medium",
        "marker-symbol": "i"
      },
      "geometry": {
        "type": "Point",
        "coordinates": [
          -122.354,
          37.9944
        ]
      }
    },
    {
      "type": "Feature",
      "properties": {
        "name": "Santa Ana City Jail",
        "description": "",
        "agency": "ICE",
        "address": "62 Civic Center Plaza",
        "city": "Santa Ana",
        "state": "CA",
        "zip": "92701",
        "source": "ice",
        "marker-color": "#E37B40",
        "marker-size": "medium",
        "marker-symbol": "i"
      },
      "geometry": {
        "type": "Point",
        "coordinates": [
          -117.874,
          33.7483
        ]
      }
    },
    {
      "type": "Feature",
      "properties": {
        "name": "Yuba County Jail",
        "description": "",
        "agency": "ICE",
        "address": "215 5th St.",
        "city": "Marysville",
        "state": "CA",
        "zip": "95901",
        "source": "ice",
        "marker-color": "#E37B40",
        "marker-size": "medium",
        "marker-symbol": "i"
      },
      "geometry": {
        "type": "Point",
        "coordinates": [
          -121.587,
          39.1411
        ]
      }
    },
    {
      "type": "Feature",
      "properties": {
        "name": "Denver Contract Detention Facility",
        "description": "",
        "agency": "ICE",
        "address": "3130 North Oakland Street",
        "city": "Aurora",
        "state": "CO",
        "zip": "80010",
        "source": "ice",
        "marker-color": "#E37B40",
        "marker-size": "medium",
        "marker-symbol": "i"
      },
      "geometry": {
        "type": "Point",
        "coordinates": [
          -104.849,
          39.7606
        ]
      }
    },
    {
      "type": "Feature",
      "properties": {
        "name": "Baker County Facility",
        "description": "",
        "agency": "ICE",
        "address": "1 Sheriff&#039;s Office Drive",
        "city": "MacClenny",
        "state": "FL",
        "zip": "32063",
        "source": "ice",
        "marker-color": "#E37B40",
        "marker-size": "medium",
        "marker-symbol": "i"
      },
      "geometry": {
        "type": "Point",
        "coordinates": [
          -82.1222,
          30.2957
        ]
      }
    },
    {
      "type": "Feature",
      "properties": {
        "name": "Broward Transitional Center",
        "description": "",
        "agency": "ICE",
        "address": "3900 N. Powerline Road",
        "city": "Pompano Beach",
        "state": "FL",
        "zip": "33073",
        "source": "ice",
        "marker-color": "#E37B40",
        "marker-size": "medium",
        "marker-symbol": "i"
      },
      "geometry": {
        "type": "Point",
        "coordinates": [
          -80.151,
          26.2772
        ]
      }
    },
    {
      "type": "Feature",
      "properties": {
        "name": "Glades County Detention Center",
        "description": "",
        "agency": "ICE",
        "address": "1297 East SR 78",
        "city": "Moore Haven",
        "state": "FL",
        "zip": "33471",
        "source": "ice",
        "marker-color": "#E37B40",
        "marker-size": "medium",
        "marker-symbol": "i"
      },
      "geometry": {
        "type": "Point",
        "coordinates": [
          -81.1247,
          26.8386
        ]
      }
    },
    {
      "type": "Feature",
      "properties": {
        "name": "Krome Service Processing Center",
        "description": "",
        "agency": "ICE",
        "address": "18201 SW 12th Street",
        "city": "Miami",
        "state": "FL",
        "zip": "33194",
        "source": "ice",
        "marker-color": "#E37B40",
        "marker-size": "medium",
        "marker-symbol": "i"
      },
      "geometry": {
        "type": "Point",
        "coordinates": [
          -80.4891,
          25.7543
        ]
      }
    },
    {
      "type": "Feature",
      "properties": {
        "name": "Wakulla County Facility",
        "description": "",
        "agency": "ICE",
        "address": "15 Oak Street",
        "city": "Crawfordville",
        "state": "FL",
        "zip": "32327",
        "source": "ice",
        "marker-color": "#E37B40",
        "marker-size": "medium",
        "marker-symbol": "i"
      },
      "geometry": {
        "type": "Point",
        "coordinates": [
          -84.3773,
          30.1966
        ]
      }
    },
    {
      "type": "Feature",
      "properties": {
        "name": "Atlanta City Detention Center",
        "description": "",
        "agency": "ICE",
        "address": "254 Peachtree Street",
        "city": "Southwest Atlanta",
        "state": "GA",
        "zip": "30303",
        "source": "ice",
        "marker-color": "#E37B40",
        "marker-size": "medium",
        "marker-symbol": "i"
      },
      "geometry": {
        "type": "Point",
        "coordinates": [
          -84.3955,
          33.7473
        ]
      }
    },
    {
      "type": "Feature",
      "properties": {
        "name": "Irwin County Detention Center",
        "description": "",
        "agency": "ICE",
        "address": "132 Cotton Drive",
        "city": "Ocilla",
        "state": "GA",
        "zip": "31774",
        "source": "ice",
        "marker-color": "#E37B40",
        "marker-size": "medium",
        "marker-symbol": "i"
      },
      "geometry": {
        "type": "Point",
        "coordinates": [
          -83.253,
          31.5781
        ]
      }
    },
    {
      "type": "Feature",
      "properties": {
        "name": "Stewart Detention Center",
        "description": "",
        "agency": "ICE",
        "address": "146 CCA Road",
        "city": "Lumpkin",
        "state": "GA",
        "zip": "31815",
        "source": "ice",
        "marker-color": "#E37B40",
        "marker-size": "medium",
        "marker-symbol": "i"
      },
      "geometry": {
        "type": "Point",
        "coordinates": [
          -84.7718,
          32.0366
        ]
      }
    },
    {
      "type": "Feature",
      "properties": {
        "name": "Jefferson County Justice Center",
        "description": "",
        "agency": "ICE",
        "address": "911 Casey Ave.",
        "city": "Mount Vernon",
        "state": "IL",
        "zip": "62864",
        "source": "ice",
        "marker-color": "#E37B40",
        "marker-size": "medium",
        "marker-symbol": "i"
      },
      "geometry": {
        "type": "Point",
        "coordinates": [
          -88.9027,
          38.3143
        ]
      }
    },
    {
      "type": "Feature",
      "properties": {
        "name": "McHenry County Adult Correctional Facility",
        "description": "",
        "agency": "ICE",
        "address": "2200 N. Seminary Ave.",
        "city": "Woodstock",
        "state": "IL",
        "zip": "60098",
        "source": "ice",
        "marker-color": "#E37B40",
        "marker-size": "medium",
        "marker-symbol": "i"
      },
      "geometry": {
        "type": "Point",
        "coordinates": [
          -88.4409,
          42.3405
        ]
      }
    },
    {
      "type": "Feature",
      "properties": {
        "name": "Pulaski County Detention Center",
        "description": "",
        "agency": "ICE",
        "address": "1026 Shawnee College Road",
        "city": "Ullin",
        "state": "IL",
        "zip": "62992",
        "source": "ice",
        "marker-color": "#E37B40",
        "marker-size": "medium",
        "marker-symbol": "i"
      },
      "geometry": {
        "type": "Point",
        "coordinates": [
          -89.1641,
          37.269
        ]
      }
    },
    {
      "type": "Feature",
      "properties": {
        "name": "Clay County Jail",
        "description": "",
        "agency": "ICE",
        "address": "611 East Jackson Street",
        "city": "Brazil",
        "state": "IN",
        "zip": "47834",
        "source": "ice",
        "marker-color": "#E37B40",
        "marker-size": "medium",
        "marker-symbol": "i"
      },
      "geometry": {
        "type": "Point",
        "coordinates": [
          -87.119,
          39.5237
        ]
      }
    },
    {
      "type": "Feature",
      "properties": {
        "name": "Hardin County Correctional Center",
        "description": "",
        "agency": "ICE",
        "address": "1116 14th Avenue",
        "city": "Eldora",
        "state": "IA",
        "zip": "50627",
        "source": "ice",
        "marker-color": "#E37B40",
        "marker-size": "medium",
        "marker-symbol": "i"
      },
      "geometry": {
        "type": "Point",
        "coordinates": [
          -93.0976,
          42.3601
        ]
      }
    },
    {
      "type": "Feature",
      "properties": {
        "name": "Boone County Jail",
        "description": "",
        "agency": "ICE",
        "address": "3020 Conrad Lane",
        "city": "Burlington",
        "state": "KY",
        "zip": "41005",
        "source": "ice",
        "marker-color": "#E37B40",
        "marker-size": "medium",
        "marker-symbol": "i"
      },
      "geometry": {
        "type": "Point",
        "coordinates": [
          -84.7283,
          39.0366
        ]
      }
    },
    {
      "type": "Feature",
      "properties": {
        "name": "LaSalle ICE Processing Center",
        "description": "",
        "agency": "ICE",
        "address": "830 Pine Hill Road",
        "city": "Jena",
        "state": "LA",
        "zip": "71342",
        "source": "ice",
        "marker-color": "#E37B40",
        "marker-size": "medium",
        "marker-symbol": "i"
      },
      "geometry": {
        "type": "Point",
        "coordinates": [
          -92.1524,
          31.7083
        ]
      }
    },
    {
      "type": "Feature",
      "properties": {
        "name": "Worcester County Detention Center",
        "description": "",
        "agency": "ICE",
        "address": "5022 Joyner Road",
        "city": "Snow Hill",
        "state": "MD",
        "zip": "21863",
        "source": "ice",
        "marker-color": "#E37B40",
        "marker-size": "medium",
        "marker-symbol": "i"
      },
      "geometry": {
        "type": "Point",
        "coordinates": [
          -75.376,
          38.1699
        ]
      }
    },
    {
      "type": "Feature",
      "properties": {
        "name": "Bristol County House of Corrections",
        "description": "",
        "agency": "ICE",
        "address": "400 Faunce Corner Road",
        "city": "North Dartmouth",
        "state": "MA",
        "zip": "02747",
        "source": "ice",
        "marker-color": "#E37B40",
        "marker-size": "medium",
        "marker-symbol": "i"
      },
      "geometry": {
        "type": "Point",
        "coordinates": [
          -70.9949,
          41.6657
        ]
      }
    },
    {
      "type": "Feature",
      "properties": {
        "name": "Plymouth County Correctional Facility",
        "description": "",
        "agency": "ICE",
        "address": "26 Long Pond Road",
        "city": "Plymouth",
        "state": "MA",
        "zip": "02360",
        "source": "ice",
        "marker-color": "#E37B40",
        "marker-size": "medium",
        "marker-symbol": "i"
      },
      "geometry": {
        "type": "Point",
        "coordinates": [
          -70.6542,
          41.9305
        ]
      }
    },
    {
      "type": "Feature",
      "properties": {
        "name": "Suffolk County House of Corrections (South Bay)",
        "description": "",
        "agency": "ICE",
        "address": "20 Bradston Street",
        "city": "Boston",
        "state": "MA",
        "zip": "02118",
        "source": "ice",
        "marker-color": "#E37B40",
        "marker-size": "medium",
        "marker-symbol": "i"
      },
      "geometry": {
        "type": "Point",
        "coordinates": [
          -71.0677,
          42.3344
        ]
      }
    },
    {
      "type": "Feature",
      "properties": {
        "name": "Calhoun County Correctional Center",
        "description": "",
        "agency": "ICE",
        "address": "185 E. Michigan Street",
        "city": "Battle Creek",
        "state": "MI",
        "zip": "49014",
        "source": "ice",
        "marker-color": "#E37B40",
        "marker-size": "medium",
        "marker-symbol": "i"
      },
      "geometry": {
        "type": "Point",
        "coordinates": [
          -85.1767,
          42.3157
        ]
      }
    },
    {
      "type": "Feature",
      "properties": {
        "name": "Monroe County Jail",
        "description": "",
        "agency": "ICE",
        "address": "7000 East Dunbar Road",
        "city": "Monroe",
        "state": "MI",
        "zip": "48161",
        "source": "ice",
        "marker-color": "#E37B40",
        "marker-size": "medium",
        "marker-symbol": "i"
      },
      "geometry": {
        "type": "Point",
        "coordinates": [
          -83.3933,
          41.8956
        ]
      }
    },
    {
      "type": "Feature",
      "properties": {
        "name": "Freeborn County Jail Services",
        "description": "",
        "agency": "ICE",
        "address": "411 S. Broadway Ave.",
        "city": "Albert Lea",
        "state": "MN",
        "zip": "56007",
        "source": "ice",
        "marker-color": "#E37B40",
        "marker-size": "medium",
        "marker-symbol": "i"
      },
      "geometry": {
        "type": "Point",
        "coordinates": [
          -93.368,
          43.646
        ]
      }
    },
    {
      "type": "Feature",
      "properties": {
        "name": "Ramsey County Adult Detention Center",
        "description": "",
        "agency": "ICE",
        "address": "425 Grove Street",
        "city": "St. Paul",
        "state": "MN",
        "zip": "55101",
        "source": "ice",
        "marker-color": "#E37B40",
        "marker-size": "medium",
        "marker-symbol": "i"
      },
      "geometry": {
        "type": "Point",
        "coordinates": [
          -93.086,
          44.9567
        ]
      }
    },
    {
      "type": "Feature",
      "properties": {
        "name": "Sherburne County Jail Services",
        "description": "",
        "agency": "ICE",
        "address": "13880 Business Center Drive NW",
        "city": "Elk River",
        "state": "MN",
        "zip": "55330",
        "source": "ice",
        "marker-color": "#E37B40",
        "marker-size": "medium",
        "marker-symbol": "i"
      },
      "geometry": {
        "type": "Point",
        "coordinates": [
          -93.6206,
          45.3047
        ]
      }
    },
    {
      "type": "Feature",
      "properties": {
        "name": "Montgomery County Jail",
        "description": "",
        "agency": "ICE",
        "address": "211 East Main",
        "city": "Montgomery City",
        "state": "MO",
        "zip": "63361",
        "source": "ice",
        "marker-color": "#E37B40",
        "marker-size": "medium",
        "marker-symbol": "i"
      },
      "geometry": {
        "type": "Point",
        "coordinates": [
          -91.5349,
          38.9097
        ]
      }
    },
    {
      "type": "Feature",
      "properties": {
        "name": "Douglas County Department of Corrections",
        "description": "",
        "agency": "ICE",
        "address": "710 South 17th Street",
        "city": "Omaha",
        "state": "NE",
        "zip": "68102",
        "source": "ice",
        "marker-color": "#E37B40",
        "marker-size": "medium",
        "marker-symbol": "i"
      },
      "geometry": {
        "type": "Point",
        "coordinates": [
          -95.9384,
          41.2534
        ]
      }
    },
    {
      "type": "Feature",
      "properties": {
        "name": "Hall County Department of Corrections",
        "description": "",
        "agency": "ICE",
        "address": "110 Public Safety Drive",
        "city": "Grand Island",
        "state": "NE",
        "zip": "68801",
        "source": "ice",
        "marker-color": "#E37B40",
        "marker-size": "medium",
        "marker-symbol": "i"
      },
      "geometry": {
        "type": "Point",
        "coordinates": [
          -98.3281,
          40.9269
        ]
      }
    },
    {
      "type": "Feature",
      "properties": {
        "name": "Bergen County Jail",
        "description": "",
        "agency": "ICE",
        "address": "160 South River Street",
        "city": "Hackensack",
        "state": "NJ",
        "zip": "Jersey",
        "source": "ice",
        "marker-color": "#E37B40",
        "marker-size": "medium",
        "marker-symbol": "i"
      },
      "geometry": {
        "type": "Point",
        "coordinates": [
          -74.0401,
          40.8733
        ]
      }
    },
    {
      "type": "Feature",
      "properties": {
        "name": "Delaney Hall Detention Facility",
        "description": "",
        "agency": "ICE",
        "address": "Delaney Hall Detention Facility (DHDF), 451 Doremus Avenue",
        "city": "Newark",
        "state": "NJ",
        "zip": "07105",
        "source": "ice",
        "marker-color": "#E37B40",
        "marker-size": "medium",
        "marker-symbol": "i"
      },
      "geometry": {
        "type": "Point",
        "coordinates": [
          -74.1286,
          40.7182
        ]
      }
    },
    {
      "type": "Feature",
      "properties": {
        "name": "Elizabeth Contract Detention Facility",
        "description": "",
        "agency": "ICE",
        "address": "625 Evans Street",
        "city": "Elizabeth",
        "state": "NJ",
        "zip": "07201",
        "source": "ice",
        "marker-color": "#E37B40",
        "marker-size": "medium",
        "marker-symbol": "i"
      },
      "geometry": {
        "type": "Point",
        "coordinates": [
          -74.1897,
          40.6661
        ]
      }
    },
    {
      "type": "Feature",
      "properties": {
        "name": "Essex County Correctional Facility",
        "description": "",
        "agency": "ICE",
        "address": "354 Doremus Avenue",
        "city": "Newark",
        "state": "NJ",
        "zip": "07105",
        "source": "ice",
        "marker-color": "#E37B40",
        "marker-size": "medium",
        "marker-symbol": "i"
      },
      "geometry": {
        "type": "Point",
        "coordinates": [
          -74.1272,
          40.7212
        ]
      }
    },
    {
      "type": "Feature",
      "properties": {
        "name": "Hudson County Correctional Facility",
        "description": "",
        "agency": "ICE",
        "address": "30-35 Hackensack Avenue",
        "city": "Kearny",
        "state": "NJ",
        "zip": "07032",
        "source": "ice",
        "marker-color": "#E37B40",
        "marker-size": "medium",
        "marker-symbol": "i"
      },
      "geometry": {
        "type": "Point",
        "coordinates": [
          -74.1084,
          40.7279
        ]
      }
    },
    {
      "type": "Feature",
      "properties": {
        "name": "Monmouth County Correctional Institution",
        "description": "",
        "agency": "ICE",
        "address": "1 Waterworks Road",
        "city": "Freehold",
        "state": "NJ",
        "zip": "07728",
        "source": "ice",
        "marker-color": "#E37B40",
        "marker-size": "medium",
        "marker-symbol": "i"
      },
      "geometry": {
        "type": "Point",
        "coordinates": [
          -74.2871,
          40.2677
        ]
      }
    },
    {
      "type": "Feature",
      "properties": {
        "name": "Otero County Processing Center",
        "description": "",
        "agency": "ICE",
        "address": "26 McGregor Range Road",
        "city": "Chaparral",
        "state": "NM",
        "zip": "88081",
        "source": "ice",
        "marker-color": "#E37B40",
        "marker-size": "medium",
        "marker-symbol": "i"
      },
      "geometry": {
        "type": "Point",
        "coordinates": [
          -106.255,
          32.0768
        ]
      }
    },
    {
      "type": "Feature",
      "properties": {
        "name": "Buffalo Federal Detention Facility",
        "description": "",
        "agency": "ICE",
        "address": "4250 Federal Drive",
        "city": "Batavia",
        "state": "NY",
        "zip": "York",
        "source": "ice",
        "marker-color": "#E37B40",
        "marker-size": "medium",
        "marker-symbol": "i"
      },
      "geometry": {
        "type": "Point",
        "coordinates": [
          -78.2026,
          43.0202
        ]
      }
    },
    {
      "type": "Feature",
      "properties": {
        "name": "Orange County Correctional Facility",
        "description": "",
        "agency": "ICE",
        "address": "110 Wells Farm Road",
        "city": "Goshen",
        "state": "NY",
        "zip": "10924",
        "source": "ice",
        "marker-color": "#E37B40",
        "marker-size": "medium",
        "marker-symbol": "i"
      },
      "geometry": {
        "type": "Point",
        "coordinates": [
          -74.3595,
          41.4049
        ]
      }
    },
    {
      "type": "Feature",
      "properties": {
        "name": "Bedford Heights City Jail",
        "description": "",
        "agency": "ICE",
        "address": "5661 Perkins Road",
        "city": "Bedford Heights",
        "state": "OH",
        "zip": "44146",
        "source": "ice",
        "marker-color": "#E37B40",
        "marker-size": "medium",
        "marker-symbol": "i"
      },
      "geometry": {
        "type": "Point",
        "coordinates": [
          -81.498,
          41.4053
        ]
      }
    },
    {
      "type": "Feature",
      "properties": {
        "name": "Butler County Correctional Complex",
        "description": "",
        "agency": "ICE",
        "address": "705 Hanover Street",
        "city": "Hamilton",
        "state": "OH",
        "zip": "45011",
        "source": "ice",
        "marker-color": "#E37B40",
        "marker-size": "medium",
        "marker-symbol": "i"
      },
      "geometry": {
        "type": "Point",
        "coordinates": [
          -84.5559,
          39.3881
        ]
      }
    },
    {
      "type": "Feature",
      "properties": {
        "name": "Morrow County Correctional Facility",
        "description": "",
        "agency": "ICE",
        "address": "101 Home Road",
        "city": "Mt. Gilead",
        "state": "OH",
        "zip": "43338",
        "source": "ice",
        "marker-color": "#E37B40",
        "marker-size": "medium",
        "marker-symbol": "i"
      },
      "geometry": {
        "type": "Point",
        "coordinates": [
          -82.8067,
          40.56
        ]
      }
    },
    {
      "type": "Feature",
      "properties": {
        "name": "Seneca County Jail",
        "description": "",
        "agency": "ICE",
        "address": "3040 South State Route 100",
        "city": "Tiffin",
        "state": "OH",
        "zip": "44883",
        "source": "ice",
        "marker-color": "#E37B40",
        "marker-size": "medium",
        "marker-symbol": "i"
      },
      "geometry": {
        "type": "Point",
        "coordinates": [
          -83.2082,
          41.0796
        ]
      }
    },
    {
      "type": "Feature",
      "properties": {
        "name": "David L. Moss Criminal Justice Center",
        "description": "",
        "agency": "ICE",
        "address": "300 N. Denver Ave.",
        "city": "Tulsa",
        "state": "OK",
        "zip": "74103",
        "source": "ice",
        "marker-color": "#E37B40",
        "marker-size": "medium",
        "marker-symbol": "i"
      },
      "geometry": {
        "type": "Point",
        "coordinates": [
          -95.9993,
          36.1573
        ]
      }
    },
    {
      "type": "Feature",
      "properties": {
        "name": "Clinton County Correctional Facility",
        "description": "",
        "agency": "ICE",
        "address": "58 Pine Mountain Road",
        "city": "McElhattan",
        "state": "PA",
        "zip": "17748&lt;p&gt;North",
        "source": "ice",
        "marker-color": "#E37B40",
        "marker-size": "medium",
        "marker-symbol": "i"
      },
      "geometry": {
        "type": "Point",
        "coordinates": [
          -77.3497,
          41.1509
        ]
      }
    },
    {
      "type": "Feature",
      "properties": {
        "name": "Pike County Correctional Facility",
        "description": "",
        "agency": "ICE",
        "address": "175 Pike County Blvd.",
        "city": "Lords Valley",
        "state": "PA",
        "zip": "18428",
        "source": "ice",
        "marker-color": "#E37B40",
        "marker-size": "medium",
        "marker-symbol": "i"
      },
      "geometry": {
        "type": "Point",
        "coordinates": [
          -75.0719,
          41.3886
        ]
      }
    },
    {
      "type": "Feature",
      "properties": {
        "name": "York County Prison",
        "description": "",
        "agency": "ICE",
        "address": "3400 Concord Road",
        "city": "York",
        "state": "PA",
        "zip": "17402",
        "source": "ice",
        "marker-color": "#E37B40",
        "marker-size": "medium",
        "marker-symbol": "i"
      },
      "geometry": {
        "type": "Point",
        "coordinates": [
          -76.6608,
          39.9865
        ]
      }
    },
    {
      "type": "Feature",
      "properties": {
        "name": "El Paso Processing Center",
        "description": "",
        "agency": "ICE",
        "address": "8915 Montana Ave.",
        "city": "El Paso",
        "state": "TX",
        "zip": "79925",
        "source": "ice",
        "marker-color": "#E37B40",
        "marker-size": "medium",
        "marker-symbol": "i"
      },
      "geometry": {
        "type": "Point",
        "coordinates": [
          -106.369,
          31.7939
        ]
      }
    },
    {
      "type": "Feature",
      "properties": {
        "name": "Houston Contract Detention Facility",
        "description": "",
        "agency": "ICE",
        "address": "15850 Export Plaza Drive",
        "city": "Houston",
        "state": "TX",
        "zip": "77032",
        "source": "ice",
        "marker-color": "#E37B40",
        "marker-size": "medium",
        "marker-symbol": "i"
      },
      "geometry": {
        "type": "Point",
        "coordinates": [
          -95.3122,
          29.9497
        ]
      }
    },
    {
      "type": "Feature",
      "properties": {
        "name": "Joe Corley Detention Facility",
        "description": "",
        "agency": "ICE",
        "address": "500 Hilbig Rd",
        "city": "Conroe",
        "state": "TX",
        "zip": "77301",
        "source": "ice",
        "marker-color": "#E37B40",
        "marker-size": "medium",
        "marker-symbol": "i"
      },
      "geometry": {
        "type": "Point",
        "coordinates": [
          -95.4481,
          30.3358
        ]
      }
    },
    {
      "type": "Feature",
      "properties": {
        "name": "Johnson County Detention Center",
        "description": "",
        "agency": "ICE",
        "address": "1800 Ridgemar Drive",
        "city": "Cleburne",
        "state": "TX",
        "zip": "76031",
        "source": "ice",
        "marker-color": "#E37B40",
        "marker-size": "medium",
        "marker-symbol": "i"
      },
      "geometry": {
        "type": "Point",
        "coordinates": [
          -97.3891,
          32.372
        ]
      }
    },
    {
      "type": "Feature",
      "properties": {
        "name": "Karnes County Residential Center",
        "description": "",
        "agency": "ICE",
        "address": "409 FM 1144",
        "city": "Karnes City",
        "state": "TX",
        "zip": "78118",
        "source": "ice",
        "marker-color": "#E37B40",
        "marker-size": "medium",
        "marker-symbol": "i"
      },
      "geometry": {
        "type": "Point",
        "coordinates": [
          -97.9112,
          28.8858
        ]
      }
    },
    {
      "type": "Feature",
      "properties": {
        "name": "Laredo Detention Center",
        "description": "",
        "agency": "ICE",
        "address": "4702 East Saunders",
        "city": "Laredo",
        "state": "TX",
        "zip": "78401",
        "source": "ice",
        "marker-color": "#E37B40",
        "marker-size": "medium",
        "marker-symbol": "i"
      },
      "geometry": {
        "type": "Point",
        "coordinates": [
          -99.4479,
          27.5289
        ]
      }
    },
    {
      "type": "Feature",
      "properties": {
        "name": "IAH Secure Adult Detention Facility",
        "description": "",
        "agency": "ICE",
        "address": "3400 FM 350 South",
        "city": "Livingston",
        "state": "TX",
        "zip": "77351",
        "source": "ice",
        "marker-color": "#E37B40",
        "marker-size": "medium",
        "marker-symbol": "i"
      },
      "geometry": {
        "type": "Point",
        "coordinates": [
          -95.0061,
          30.6977
        ]
      }
    },
    {
      "type": "Feature",
      "properties": {
        "name": "Port Isabel Service Processing Center",
        "description": "",
        "agency": "ICE",
        "address": "27991 Buena Vista Blvd.",
        "city": "Los Fresnos",
        "state": "TX",
        "zip": "78566",
        "source": "ice",
        "marker-color": "#E37B40",
        "marker-size": "medium",
        "marker-symbol": "i"
      },
      "geometry": {
        "type": "Point",
        "coordinates": [
          -97.3383,
          26.155
        ]
      }
    },
    {
      "type": "Feature",
      "properties": {
        "name": "Rolling Plains Correctional Facility",
        "description": "",
        "agency": "ICE",
        "address": "118 County Road 206",
        "city": "Haskell",
        "state": "TX",
        "zip": "79521",
        "source": "ice",
        "marker-color": "#E37B40",
        "marker-size": "medium",
        "marker-symbol": "i"
      },
      "geometry": {
        "type": "Point",
        "coordinates": [
          -99.7201,
          33.1714
        ]
      }
    },
    {
      "type": "Feature",
      "properties": {
        "name": "South Texas Detention Complex",
        "description": "",
        "agency": "ICE",
        "address": "566 Veterans Drive",
        "city": "Pearsall",
        "state": "TX",
        "zip": "78061",
        "source": "ice",
        "marker-color": "#E37B40",
        "marker-size": "medium",
        "marker-symbol": "i"
      },
      "geometry": {
        "type": "Point",
        "coordinates": [
          -99.1212,
          28.895
        ]
      }
    },
    {
      "type": "Feature",
      "properties": {
        "name": "T. Don Hutto Residential Center",
        "description": "",
        "agency": "ICE",
        "address": "1001 Welch St.",
        "city": "Taylor",
        "state": "TX",
        "zip": "76574",
        "source": "ice",
        "marker-color": "#E37B40",
        "marker-size": "medium",
        "marker-symbol": "i"
      },
      "geometry": {
        "type": "Point",
        "coordinates": [
          -97.4198,
          30.5653
        ]
      }
    },
    {
      "type": "Feature",
      "properties": {
        "name": "West Texas Detention Facility",
        "description": "",
        "agency": "ICE",
        "address": "401 S. Vaquero Avenue",
        "city": "Sierra Blanca",
        "state": "TX",
        "zip": "79851",
        "source": "ice",
        "marker-color": "#E37B40",
        "marker-size": "medium",
        "marker-symbol": "i"
      },
      "geometry": {
        "type": "Point",
        "coordinates": [
          -105.352,
          31.1666
        ]
      }
    },
    {
      "type": "Feature",
      "properties": {
        "name": "Utah County Jail",
        "description": "",
        "agency": "ICE",
        "address": "3075 North Main",
        "city": "Spanish Fork",
        "state": "UT",
        "zip": "84660",
        "source": "ice",
        "marker-color": "#E37B40",
        "marker-size": "medium",
        "marker-symbol": "i"
      },
      "geometry": {
        "type": "Point",
        "coordinates": [
          -111.66,
          40.1489
        ]
      }
    },
    {
      "type": "Feature",
      "properties": {
        "name": "Weber County Correctional Facility",
        "description": "",
        "agency": "ICE",
        "address": "721 W. 12th Street",
        "city": "Ogden",
        "state": "UT",
        "zip": "84401",
        "source": "ice",
        "marker-color": "#E37B40",
        "marker-size": "medium",
        "marker-symbol": "i"
      },
      "geometry": {
        "type": "Point",
        "coordinates": [
          -111.996,
          41.2445
        ]
      }
    },
    {
      "type": "Feature",
      "properties": {
        "name": "Farmville Detention Center",
        "description": "",
        "agency": "ICE",
        "address": "508 Waterworks Road",
        "city": "Farmville",
        "state": "VA",
        "zip": "23901",
        "source": "ice",
        "marker-color": "#E37B40",
        "marker-size": "medium",
        "marker-symbol": "i"
      },
      "geometry": {
        "type": "Point",
        "coordinates": [
          -78.437,
          37.3239
        ]
      }
    },
    {
      "type": "Feature",
      "properties": {
        "name": "Tacoma Northwest Detention Center",
        "description": "",
        "agency": "ICE",
        "address": "1623 E J Street, Suite 2",
        "city": "Tacoma",
        "state": "WA",
        "zip": "98421-1615",
        "source": "ice",
        "marker-color": "#E37B40",
        "marker-size": "medium",
        "marker-symbol": "i"
      },
      "geometry": {
        "type": "Point",
        "coordinates": [
          -122.421,
          47.2491
        ]
      }
    },
    {
      "type": "Feature",
      "properties": {
        "name": "Dodge Detention Facility",
        "description": "",
        "agency": "ICE",
        "address": "141 N. Main Street",
        "city": "Juneau",
        "state": "WI",
        "zip": "53039",
        "source": "ice",
        "marker-color": "#E37B40",
        "marker-size": "medium",
        "marker-symbol": "i"
      },
      "geometry": {
        "type": "Point",
        "coordinates": [
          -88.7041,
          43.4076
        ]
      }
    },
    {
      "type": "Feature",
      "properties": {
        "name": "Kenosha County Detention Center",
        "description": "",
        "agency": "ICE",
        "address": "4777 88th Avenue",
        "city": "Kenosha",
        "state": "WI",
        "zip": "53144",
        "source": "ice",
        "marker-color": "#E37B40",
        "marker-size": "medium",
        "marker-symbol": "i"
      },
      "geometry": {
        "type": "Point",
        "coordinates": [
          -87.9119,
          42.5943
        ]
      }
    },
    {
      "type": "Feature",
      "properties": {
        "name": "South Texas Family Residential Center",
        "description": "",
        "agency": "ICE",
        "address": "300 El Rancho Way",
        "city": "Dilley",
        "state": "TX",
        "zip": "78017",
        "source": "ice",
        "marker-color": "#E37B40",
        "marker-size": "medium",
        "marker-symbol": "i"
      },
      "geometry": {
        "type": "Point",
        "coordinates": [
          -99.2004,
          28.6579
        ]
      }
    },
    {
      "type": "Feature",
      "properties": {
        "name": "Rio Cosumnes Correctional Center",
        "description": "",
        "agency": "ICE",
        "address": "12500 Bruceville Road",
        "city": "Elk Grove",
        "state": "CA",
        "zip": "95757",
        "source": "ice",
        "marker-color": "#E37B40",
        "marker-size": "medium",
        "marker-symbol": "i"
      },
      "geometry": {
        "type": "Point",
        "coordinates": [
          -121.422,
          38.3063
        ]
      }
    },
    {
      "type": "Feature",
      "properties": {
        "name": "Pine Prairie ICE Processing Center",
        "description": "",
        "agency": "ICE",
        "address": "1133 Hampton Dupre Road",
        "city": "Pine Prairie",
        "state": "LA",
        "zip": "70576",
        "source": "ice",
        "marker-color": "#E37B40",
        "marker-size": "medium",
        "marker-symbol": "i"
      },
      "geometry": {
        "type": "Point",
        "coordinates": [
          -92.4231,
          30.7886
        ]
      }
    },
    {
      "type": "Feature",
      "properties": {
        "name": "Mesa Verde ICE Processing Facility",
        "description": "",
        "agency": "ICE",
        "address": "425 Golden State Avenue",
        "city": "Bakersfield",
        "state": "CA",
        "zip": "93301 ",
        "source": "ice",
        "marker-color": "#E37B40",
        "marker-size": "medium",
        "marker-symbol": "i"
      },
      "geometry": {
        "type": "Point",
        "coordinates": [
          -119.006,
          35.38
        ]
      }
    },
    {
      "type": "Feature",
      "properties": {
        "name": "Virginia Peninsula Regional Jail",
        "description": "",
        "agency": "ICE",
        "address": "9320 Merrimac Trail",
        "city": "Williamsburg",
        "state": "VA",
        "zip": "23185 ",
        "source": "ice",
        "marker-color": "#E37B40",
        "marker-size": "medium",
        "marker-symbol": "i"
      },
      "geometry": {
        "type": "Point",
        "coordinates": [
          -76.6036,
          37.2166
        ]
      }
    },
    {
      "type": "Feature",
      "properties": {
        "name": "Frederick County Detention Center",
        "description": "",
        "agency": "ICE",
        "address": "7300 Marcies Choice Lane",
        "city": "Frederick",
        "state": "MD",
        "zip": "21704",
        "source": "ice",
        "marker-color": "#E37B40",
        "marker-size": "medium",
        "marker-symbol": "i"
      },
      "geometry": {
        "type": "Point",
        "coordinates": [
          -77.4136,
          39.3655
        ]
      }
    },
    {
      "type": "Feature",
      "properties": {
        "name": "Geauga County Safety Center",
        "description": "",
        "agency": "ICE",
        "address": "12450 Merritt Road",
        "city": "Chardon",
        "state": "OH",
        "zip": "44024",
        "source": "ice",
        "marker-color": "#E37B40",
        "marker-size": "medium",
        "marker-symbol": "i"
      },
      "geometry": {
        "type": "Point",
        "coordinates": [
          -81.1915,
          41.5047
        ]
      }
    },
    {
      "type": "Feature",
      "properties": {
        "name": "Howard County Detention Center",
        "description": "",
        "agency": "ICE",
        "address": "7301 Waterloo Rd",
        "city": "Jessup",
        "state": "MD",
        "zip": "20794",
        "source": "ice",
        "marker-color": "#E37B40",
        "marker-size": "medium",
        "marker-symbol": "i"
      },
      "geometry": {
        "type": "Point",
        "coordinates": [
          -76.7818,
          39.1694
        ]
      }
    },
    {
      "type": "Feature",
      "properties": {
        "name": "James A. Musick Facility",
        "description": "",
        "agency": "ICE",
        "address": "13502 Musick Road",
        "city": "Irvine",
        "state": "CA",
        "zip": "92618",
        "source": "ice",
        "marker-color": "#E37B40",
        "marker-size": "medium",
        "marker-symbol": "i"
      },
      "geometry": {
        "type": "Point",
        "coordinates": [
          -117.703,
          33.6625
        ]
      }
    },
    {
      "type": "Feature",
      "properties": {
        "name": "Theo Lacy Facility",
        "description": "",
        "agency": "ICE",
        "address": "501 The City Drive",
        "city": "South Orange",
        "state": "CA",
        "zip": "92868 ",
        "source": "ice",
        "marker-color": "#E37B40",
        "marker-size": "medium",
        "marker-symbol": "i"
      },
      "geometry": {
        "type": "Point",
        "coordinates": [
          -117.888,
          33.7818
        ]
      }
    },
    {
      "type": "Feature",
      "properties": {
        "name": "Albany County Correctional Facility",
        "description": "",
        "agency": "ICE",
        "address": "840 Albany Shaker Road",
        "city": "Albany",
        "state": "NY",
        "zip": "12211",
        "source": "ice",
        "marker-color": "#E37B40",
        "marker-size": "medium",
        "marker-symbol": "i"
      },
      "geometry": {
        "type": "Point",
        "coordinates": [
          -73.8162,
          42.7516
        ]
      }
    },
    {
      "type": "Feature",
      "properties": {
        "name": "Allegany County Jail",
        "description": "",
        "agency": "ICE",
        "address": "4884 State Route 19",
        "city": "Belmont",
        "state": "NY",
        "zip": "14813",
        "source": "ice",
        "marker-color": "#E37B40",
        "marker-size": "medium",
        "marker-symbol": "i"
      },
      "geometry": {
        "type": "Point",
        "coordinates": [
          -78.0097,
          42.2056
        ]
      }
    },
    {
      "type": "Feature",
      "properties": {
        "name": "Chautauqua County Jail",
        "description": "",
        "agency": "ICE",
        "address": "15 E. Chautauqua Street",
        "city": "Mayville",
        "state": "NY",
        "zip": "14757",
        "source": "ice",
        "marker-color": "#E37B40",
        "marker-size": "medium",
        "marker-symbol": "i"
      },
      "geometry": {
        "type": "Point",
        "coordinates": [
          -79.5036,
          42.2546
        ]
      }
    },
    {
      "type": "Feature",
      "properties": {
        "name": "Clinton County Jail",
        "description": "",
        "agency": "ICE",
        "address": "25 McCarthy Drive",
        "city": "Plattsburgh",
        "state": "NY",
        "zip": "12901",
        "source": "ice",
        "marker-color": "#E37B40",
        "marker-size": "medium",
        "marker-symbol": "i"
      },
      "geometry": {
        "type": "Point",
        "coordinates": [
          -73.4672,
          44.7202
        ]
      }
    },
    {
      "type": "Feature",
      "properties": {
        "name": "Berks Family Residential Center",
        "description": "",
        "agency": "ICE",
        "address": "1040 Berks Road",
        "city": "Leesport",
        "state": "PA",
        "zip": "19533",
        "source": "ice",
        "marker-color": "#E37B40",
        "marker-size": "medium",
        "marker-symbol": "i"
      },
      "geometry": {
        "type": "Point",
        "coordinates": [
          -76.0195,
          40.3793
        ]
      }
    },
    {
      "type": "Feature",
      "properties": {
        "name": "Carver County Jail Services",
        "description": "",
        "agency": "ICE",
        "address": "600 East 4th Street",
        "city": "Chaska",
        "state": "MN",
        "zip": "55318 ",
        "source": "ice",
        "marker-color": "#E37B40",
        "marker-size": "medium",
        "marker-symbol": "i"
      },
      "geometry": {
        "type": "Point",
        "coordinates": [
          -93.5933,
          44.789
        ]
      }
    },
    {
      "type": "Feature",
      "properties": {
        "name": "Cass County Jail Services",
        "description": "",
        "agency": "ICE",
        "address": "336 Main Street",
        "city": "Plattsmouth",
        "state": "NE",
        "zip": "68048",
        "source": "ice",
        "marker-color": "#E37B40",
        "marker-size": "medium",
        "marker-symbol": "i"
      },
      "geometry": {
        "type": "Point",
        "coordinates": [
          -95.8831,
          41.0112
        ]
      }
    },
    {
      "type": "Feature",
      "properties": {
        "name": "St. Clair County Jail",
        "description": "",
        "agency": "ICE",
        "address": "1170 Michigan Road",
        "city": "Port Huron",
        "state": "MI",
        "zip": "48060",
        "source": "ice",
        "marker-color": "#E37B40",
        "marker-size": "medium",
        "marker-symbol": "i"
      },
      "geometry": {
        "type": "Point",
        "coordinates": [
          -82.4795,
          42.9423
        ]
      }
    },
    {
      "type": "Feature",
      "properties": {
        "name": "Teller County Detention Center",
        "description": "",
        "agency": "ICE",
        "address": "288 County Road 29",
        "city": "Divide",
        "state": "CO",
        "zip": "80814",
        "source": "ice",
        "marker-color": "#E37B40",
        "marker-size": "medium",
        "marker-symbol": "i"
      },
      "geometry": {
        "type": "Point",
        "coordinates": [
          -105.151,
          38.943
        ]
      }
    },
    {
      "type": "Feature",
      "properties": {
        "name": "El Paso County Criminal Justice Center",
        "description": "",
        "agency": "ICE",
        "address": "2739 East Las Vegas Street",
        "city": "Colorado Springs",
        "state": "CO",
        "zip": "80906",
        "source": "ice",
        "marker-color": "#E37B40",
        "marker-size": "medium",
        "marker-symbol": "i"
      },
      "geometry": {
        "type": "Point",
        "coordinates": [
          -104.779,
          38.7879
        ]
      }
    },
    {
      "type": "Feature",
      "properties": {
        "name": "Torrance County Detention Facility",
        "description": "",
        "agency": "ICE",
        "address": "209 County Road A049",
        "city": "Estancia",
        "state": "NM",
        "zip": "87016",
        "source": "ice",
        "marker-color": "#E37B40",
        "marker-size": "medium",
        "marker-symbol": "i"
      },
      "geometry": {
        "type": "Point",
        "coordinates": [
          -106.019,
          34.7673
        ]
      }
    },
    {
      "type": "Feature",
      "properties": {
        "name": "Wayne County Jail",
        "description": "",
        "agency": "ICE",
        "address": "7368 Route 31",
        "city": "Lyons",
        "state": "NY",
        "zip": "14489",
        "source": "ice",
        "marker-color": "#E37B40",
        "marker-size": "medium",
        "marker-symbol": "i"
      },
      "geometry": {
        "type": "Point",
        "coordinates": [
          -77.0322,
          43.0676
        ]
      }
    },
    {
      "type": "Feature",
      "properties": {
        "name": "Franklin County House of Correction",
        "description": "",
        "agency": "ICE",
        "address": "160 Elm Street",
        "city": "Greenfield",
        "state": "MA",
        "zip": "01301",
        "source": "ice",
        "marker-color": "#E37B40",
        "marker-size": "medium",
        "marker-symbol": "i"
      },
      "geometry": {
        "type": "Point",
        "coordinates": [
          -72.6138,
          42.5959
        ]
      }
    },
    {
      "type": "Feature",
      "properties": {
        "name": "Strafford County House of Corrections",
        "description": "",
        "agency": "ICE",
        "address": "266 County Farm Road",
        "city": "Dover",
        "state": "NH",
        "zip": "03820",
        "source": "ice",
        "marker-color": "#E37B40",
        "marker-size": "medium",
        "marker-symbol": "i"
      },
      "geometry": {
        "type": "Point",
        "coordinates": [
          -70.9351,
          43.2187
        ]
      }
    },
    {
      "type": "Feature",
      "properties": {
        "name": "Henderson Detention Center",
        "description": "",
        "agency": "ICE",
        "address": "18 S. Water St.",
        "city": "Henderson",
        "state": "NV",
        "zip": "89015",
        "source": "ice",
        "marker-color": "#E37B40",
        "marker-size": "medium",
        "marker-symbol": "i"
      },
      "geometry": {
        "type": "Point",
        "coordinates": [
          -114.979,
          36.031
        ]
      }
    },
    {
      "type": "Feature",
      "properties": {
        "name": "Nevada Southern Detention Center ",
        "description": "",
        "agency": "ICE",
        "address": "2190 E Mesquite Avenue",
        "city": "Pahrump",
        "state": "NV",
        "zip": "89048",
        "source": "ice",
        "marker-color": "#E37B40",
        "marker-size": "medium",
        "marker-symbol": "i"
      },
      "geometry": {
        "type": "Point",
        "coordinates": [
          -115.975,
          36.253
        ]
      }
    },
    {
      "type": "Feature",
      "properties": {
        "name": "Washoe County Jail",
        "description": "",
        "agency": "ICE",
        "address": "911 E Parr Blvd",
        "city": "Reno",
        "state": "NV",
        "zip": "89512",
        "source": "ice",
        "marker-color": "#E37B40",
        "marker-size": "medium",
        "marker-symbol": "i"
      },
      "geometry": {
        "type": "Point",
        "coordinates": [
          -119.811,
          39.5741
        ]
      }
    },
    {
      "type": "Feature",
      "properties": {
        "name": "Burnet County Jail",
        "description": "",
        "agency": "ICE",
        "address": "900 County Lane",
        "city": "Burnet",
        "state": "TX",
        "zip": "78611",
        "source": "ice",
        "marker-color": "#E37B40",
        "marker-size": "medium",
        "marker-symbol": "i"
      },
      "geometry": {
        "type": "Point",
        "coordinates": [
          -98.2461,
          30.7454
        ]
      }
    },
    {
      "type": "Feature",
      "properties": {
        "name": "Brooks County Detention Center",
        "description": "",
        "agency": "ICE",
        "address": "901 County Road 201",
        "city": "Falfurrias",
        "state": "TX",
        "zip": "78355 ",
        "source": "ice",
        "marker-color": "#E37B40",
        "marker-size": "medium",
        "marker-symbol": "i"
      },
      "geometry": {
        "type": "Point",
        "coordinates": [
          -98.1268,
          27.2479
        ]
      }
    },
    {
      "type": "Feature",
      "properties": {
        "name": "East Hidalgo Detention Center",
        "description": "",
        "agency": "ICE",
        "address": "1300 E Hwy 107",
        "city": "La Villa",
        "state": "TX",
        "zip": "78562",
        "source": "ice",
        "marker-color": "#E37B40",
        "marker-size": "medium",
        "marker-symbol": "i"
      },
      "geometry": {
        "type": "Point",
        "coordinates": [
          -97.9181,
          26.2966
        ]
      }
    },
    {
      "type": "Feature",
      "properties": {
        "name": "Central Texas Detention Facility (GEO)",
        "description": "",
        "agency": "ICE",
        "address": "218 South Laredo Street",
        "city": "San Antonio",
        "state": "TX",
        "zip": "78207",
        "source": "ice",
        "marker-color": "#E37B40",
        "marker-size": "medium",
        "marker-symbol": "i"
      },
      "geometry": {
        "type": "Point",
        "coordinates": [
          -98.4973,
          29.4236
        ]
      }
    },
    {
      "type": "Feature",
      "properties": {
        "name": "Jack Harwell Detention Center",
        "description": "",
        "agency": "ICE",
        "address": "3101 E. Marlin Hwy",
        "city": "Waco",
        "state": "TX",
        "zip": "76705",
        "source": "ice",
        "marker-color": "#E37B40",
        "marker-size": "medium",
        "marker-symbol": "i"
      },
      "geometry": {
        "type": "Point",
        "coordinates": [
          -97.0814,
          31.5493
        ]
      }
    },
    {
      "type": "Feature",
      "properties": {
        "name": "Val Verde County Detention Center",
        "description": "",
        "agency": "ICE",
        "address": "253 FM 2523 Hamilton Lane",
        "city": "Del Rio",
        "state": "TX",
        "zip": "78840",
        "source": "ice",
        "marker-color": "#E37B40",
        "marker-size": "medium",
        "marker-symbol": "i"
      },
      "geometry": {
        "type": "Point",
        "coordinates": [
          -100.848,
          29.3732
        ]
      }
    },
    {
      "type": "Feature",
      "properties": {
        "name": "Willacy County Regional Detention Facility",
        "description": "",
        "agency": "ICE",
        "address": "1601 Buffalo Drive",
        "city": "Raymondville",
        "state": "TX",
        "zip": "78580",
        "source": "ice",
        "marker-color": "#E37B40",
        "marker-size": "medium",
        "marker-symbol": "i"
      },
      "geometry": {
        "type": "Point",
        "coordinates": [
          -97.7681,
          26.4676
        ]
      }
    },
    {
      "type": "Feature",
      "properties": {
        "name": "Karnes County Correctional Center",
        "description": "",
        "agency": "ICE",
        "address": "810 Commerce Street",
        "city": "Karnes City",
        "state": "TX",
        "zip": "78118",
        "source": "ice",
        "marker-color": "#E37B40",
        "marker-size": "medium",
        "marker-symbol": "i"
      },
      "geometry": {
        "type": "Point",
        "coordinates": [
          -97.9114,
          28.8831
        ]
      }
    },
    {
      "type": "Feature",
      "properties": {
        "name": "Rio Grande Detention Center",
        "description": "",
        "agency": "ICE",
        "address": "1001 San Rio Blvd",
        "city": "Laredo",
        "state": "TX",
        "zip": "78046",
        "source": "ice",
        "marker-color": "#E37B40",
        "marker-size": "medium",
        "marker-symbol": "i"
      },
      "geometry": {
        "type": "Point",
        "coordinates": [
          -99.4901,
          27.3777
        ]
      }
    },
    {
      "type": "Feature",
      "properties": {
        "name": "Imperial Regional Detention Facility",
        "description": "",
        "agency": "ICE",
        "address": "1572 Gateway Road",
        "city": "Calexico",
        "state": "CA",
        "zip": "92231",
        "source": "ice",
        "marker-color": "#E37B40",
        "marker-size": "medium",
        "marker-symbol": "i"
      },
      "geometry": {
        "type": "Point",
        "coordinates": [
          -115.398,
          32.6908
        ]
      }
    },
    {
      "type": "Feature",
      "properties": {
        "name": "Otay Mesa Detention Center",
        "description": "",
        "agency": "ICE",
        "address": "7488 Calzada de la Fuente",
        "city": "San Diego",
        "state": "CA",
        "zip": "92231",
        "source": "ice",
        "marker-color": "#E37B40",
        "marker-size": "medium",
        "marker-symbol": "i"
      },
      "geometry": {
        "type": "Point",
        "coordinates": [
          -116.915,
          32.575
        ]
      }
    },
    {
      "type": "Feature",
      "properties": {
        "name": "La Salle County Regional Detention Center",
        "description": "",
        "agency": "ICE",
        "address": "832 E. Texas 44",
        "city": "Encinal",
        "state": "TX",
        "zip": "78019",
        "source": "ice",
        "marker-color": "#E37B40",
        "marker-size": "medium",
        "marker-symbol": "i"
      },
      "geometry": {
        "type": "Point",
        "coordinates": [
          -99.3527,
          28.0462
        ]
      }
    },
    {
      "type": "Feature",
      "properties": {
        "name": "Prairieland Detention Center (PDC)",
        "description": "",
        "agency": "ICE",
        "address": "1209 Sunflower Lane",
        "city": "Alvarado",
        "state": "TX",
        "zip": "76009",
        "source": "ice",
        "marker-color": "#E37B40",
        "marker-size": "medium",
        "marker-symbol": "i"
      },
      "geometry": {
        "type": "Point",
        "coordinates": [
          -97.1969,
          32.4195
        ]
      }
    },
    {
      "type": "Feature",
      "properties": {
        "name": "FSL La Tuna",
        "description": "",
        "agency": "ICE",
        "address": "SSG Sims Road Building 11636",
        "city": "El Paso",
        "state": "TX",
        "zip": "79906",
        "source": "ice",
        "marker-color": "#E37B40",
        "marker-size": "medium",
        "marker-symbol": "i"
      },
      "geometry": {
        "type": "Point",
        "coordinates": [
          -106.379,
          31.8313
        ]
      }
    },
    {
      "type": "Feature",
      "properties": {
        "name": "Southwest Key Program, Inc. Glendale",
        "description": "",
        "agency": "Southwest Key Program, Inc.",
        "address": "5125 W. Myrtle Avenue",
        "city": "Glendale ",
        "state": "Arizona",
        "zip": "85301",
        "source": "propublica",
        "marker-color": "#DE5B49",
        "marker-size": "medium",
        "marker-symbol": "c"
      },
      "geometry": {
        "type": "Point",
        "coordinates": [
          -112.169801,
          33.5417647
        ]
      }
    },
    {
      "type": "Feature",
      "properties": {
        "name": "A New Leaf, Inc. Dorothy Mitchell Residence",
        "description": "",
        "agency": "A New Leaf",
        "address": "3505 E. University Drive",
        "city": "Mesa",
        "state": "Arizona",
        "zip": "85203",
        "source": "propublica",
        "marker-color": "#DE5B49",
        "marker-size": "medium",
        "marker-symbol": "c"
      },
      "geometry": {
        "type": "Point",
        "coordinates": [
          -111.7558068,
          33.4224691
        ]
      }
    },
    {
      "type": "Feature",
      "properties": {
        "name": "A New Leaf, Inc. Alice Peterson Residence",
        "description": "",
        "agency": "A New Leaf",
        "address": "901 E. University Drive",
        "city": "Mesa",
        "state": "Arizona",
        "zip": "85203",
        "source": "propublica",
        "marker-color": "#DE5B49",
        "marker-size": "medium",
        "marker-symbol": "c"
      },
      "geometry": {
        "type": "Point",
        "coordinates": [
          -111.811538,
          33.4221344
        ]
      }
    },
    {
      "type": "Feature",
      "properties": {
        "name": "Southwest Key Program, Inc. Las Palmas",
        "description": "",
        "agency": "Southwest Key Program, Inc.",
        "address": "421 W. Brown Road  ",
        "city": "Mesa",
        "state": "Arizona",
        "zip": "85201",
        "source": "propublica",
        "marker-color": "#DE5B49",
        "marker-size": "medium",
        "marker-symbol": "c"
      },
      "geometry": {
        "type": "Point",
        "coordinates": [
          -111.8404839,
          33.4349629
        ]
      }
    },
    {
      "type": "Feature",
      "properties": {
        "name": "Southwest Key Program, Inc. Casa Kokopelli",
        "description": "",
        "agency": "Southwest Key Program, Inc.",
        "address": "723 E. 2nd Avenue",
        "city": "Mesa",
        "state": "Arizona",
        "zip": "85204",
        "source": "propublica",
        "marker-color": "#DE5B49",
        "marker-size": "medium",
        "marker-symbol": "c"
      },
      "geometry": {
        "type": "Point",
        "coordinates": [
          -111.8155437,
          33.4108891
        ]
      }
    },
    {
      "type": "Feature",
      "properties": {
        "name": "Unnamed facility operated by Southwest Key Program, Inc. ",
        "description": "",
        "agency": "Southwest Key Program, Inc.",
        "address": "1201 S. 7th Avenue, Suite 120",
        "city": "Phoenix",
        "state": "Arizona",
        "zip": "85007",
        "source": "propublica",
        "marker-color": "#DE5B49",
        "marker-size": "medium",
        "marker-symbol": "c"
      },
      "geometry": {
        "type": "Point",
        "coordinates": [
          -112.0812642,
          33.4360428
        ]
      }
    },
    {
      "type": "Feature",
      "properties": {
        "name": "Unnamed facility operated by Southwest Key Program, Inc.",
        "description": "",
        "agency": "Southwest Key Program, Inc.",
        "address": "2613 W. Campbell Avenue",
        "city": "Phoenix",
        "state": "Arizona",
        "zip": "85017",
        "source": "propublica",
        "marker-color": "#DE5B49",
        "marker-size": "medium",
        "marker-symbol": "c"
      },
      "geometry": {
        "type": "Point",
        "coordinates": [
          -112.1150306,
          33.5017004
        ]
      }
    },
    {
      "type": "Feature",
      "properties": {
        "name": "Southwest Key Program, Inc. Casa Lighthouse",
        "description": "",
        "agency": "Southwest Key Program, Inc.",
        "address": "2932 N. 14th Street",
        "city": "Phoenix",
        "state": "Arizona",
        "zip": "85014",
        "source": "propublica",
        "marker-color": "#DE5B49",
        "marker-size": "medium",
        "marker-symbol": "c"
      },
      "geometry": {
        "type": "Point",
        "coordinates": [
          -112.0517822,
          33.4815489
        ]
      }
    },
    {
      "type": "Feature",
      "properties": {
        "name": "Southwest Key Program, Inc. Estrella del Norte ",
        "description": "",
        "agency": "Southwest Key Program, Inc.",
        "address": "1601 N. Oracle Road",
        "city": "Tucson",
        "state": "Arizona",
        "zip": "85705 -644",
        "source": "propublica",
        "marker-color": "#DE5B49",
        "marker-size": "medium",
        "marker-symbol": "c"
      },
      "geometry": {
        "type": "Point",
        "coordinates": [
          -110.9794904,
          32.2413144
        ]
      }
    },
    {
      "type": "Feature",
      "properties": {
        "name": "VisionQuest National",
        "description": "",
        "agency": "VisionQuest National",
        "address": "600 N. Swan Road",
        "city": "Tucson",
        "state": "Arizona",
        "zip": "85711",
        "source": "propublica",
        "marker-color": "#DE5B49",
        "marker-size": "medium",
        "marker-symbol": "c"
      },
      "geometry": {
        "type": "Point",
        "coordinates": [
          -110.892207,
          32.2291054
        ]
      }
    },
    {
      "type": "Feature",
      "properties": {
        "name": "Southwest Key Program, Inc. Casa Hacienda Del Sol",
        "description": "",
        "agency": "Southwest Key Program, Inc.",
        "address": "12030 N. 113th Avenue",
        "city": "Youngtown",
        "state": "Arizona",
        "zip": "85363 -124",
        "source": "propublica",
        "marker-color": "#DE5B49",
        "marker-size": "medium",
        "marker-symbol": "c"
      },
      "geometry": {
        "type": "Point",
        "coordinates": [
          -112.3037399,
          33.5947387
        ]
      }
    },
    {
      "type": "Feature",
      "properties": {
        "name": "Southwest Key Program, Inc. Casa San Diego",
        "description": "",
        "agency": "Southwest Key Program, Inc.",
        "address": "1160 Broadway",
        "city": "El Cajon",
        "state": "Calfornia",
        "zip": "92021",
        "source": "propublica",
        "marker-color": "#DE5B49",
        "marker-size": "medium",
        "marker-symbol": "c"
      },
      "geometry": {
        "type": "Point",
        "coordinates": [
          -116.9416164,
          32.8082769
        ]
      }
    },
    {
      "type": "Feature",
      "properties": {
        "name": "Southwest Key Program, Inc. Lemon Grove",
        "description": "",
        "agency": "Southwest Key Program, Inc.",
        "address": "2205 El Prado Avenue",
        "city": "Lemon Grove",
        "state": "Calfornia",
        "zip": "94145",
        "source": "propublica",
        "marker-color": "#DE5B49",
        "marker-size": "medium",
        "marker-symbol": "c"
      },
      "geometry": {
        "type": "Point",
        "coordinates": [
          -117.0371583,
          32.7287657
        ]
      }
    },
    {
      "type": "Feature",
      "properties": {
        "name": "Unnamed facility operated by Southwest Key Program, Inc.",
        "description": "",
        "agency": "Southwest Key Program, Inc.",
        "address": "9780 Dunbar Lane",
        "city": "El Cajon",
        "state": "California",
        "zip": "92021",
        "source": "propublica",
        "marker-color": "#DE5B49",
        "marker-size": "medium",
        "marker-symbol": "c"
      },
      "geometry": {
        "type": "Point",
        "coordinates": [
          -116.8232506,
          32.8623883
        ]
      }
    },
    {
      "type": "Feature",
      "properties": {
        "name": "BCFS Health and Human Services Fairfield",
        "description": "",
        "agency": "BCFS",
        "address": "2301 Pennsylvania Avenue",
        "city": "Fairfield",
        "state": "California",
        "zip": "94533",
        "source": "propublica",
        "marker-color": "#DE5B49",
        "marker-size": "medium",
        "marker-symbol": "c"
      },
      "geometry": {
        "type": "Point",
        "coordinates": [
          -122.0502293,
          38.271397
        ]
      }
    },
    {
      "type": "Feature",
      "properties": {
        "name": "Crittenton Foster Care and Adoption Agency",
        "description": "",
        "agency": "Crittenton Services for Children and Families ",
        "address": "801 E. Chapman Avenue",
        "city": "Fullerton",
        "state": "California",
        "zip": "92831",
        "source": "propublica",
        "marker-color": "#DE5B49",
        "marker-size": "medium",
        "marker-symbol": "c"
      },
      "geometry": {
        "type": "Point",
        "coordinates": [
          -117.9110319,
          33.8745654
        ]
      }
    },
    {
      "type": "Feature",
      "properties": {
        "name": "David & Margaret Youth and Family Services",
        "description": "",
        "agency": "David & Margaret Youth and Family Services",
        "address": "1350 3rd Street",
        "city": "La Verne",
        "state": "California",
        "zip": "91750",
        "source": "propublica",
        "marker-color": "#DE5B49",
        "marker-size": "medium",
        "marker-symbol": "c"
      },
      "geometry": {
        "type": "Point",
        "coordinates": [
          -117.7854785,
          34.1024159
        ]
      }
    },
    {
      "type": "Feature",
      "properties": {
        "name": "Nuevo Amanecer Latino Children's Services",
        "description": "",
        "agency": "Nuevo Amanecer Latino Children's Services",
        "address": "5400 Pomona Boulevard",
        "city": "Los Angeles ",
        "state": "California",
        "zip": "90022",
        "source": "propublica",
        "marker-color": "#DE5B49",
        "marker-size": "medium",
        "marker-symbol": "c"
      },
      "geometry": {
        "type": "Point",
        "coordinates": [
          -118.1495229,
          34.0331756
        ]
      }
    },
    {
      "type": "Feature",
      "properties": {
        "name": "Southwest Key Program, Inc. Pleasant Hill",
        "description": "",
        "agency": "Southwest Key",
        "address": "808 Grayson Road",
        "city": "Pleasant Hill",
        "state": "California",
        "zip": "94523",
        "source": "propublica",
        "marker-color": "#DE5B49",
        "marker-size": "medium",
        "marker-symbol": "c"
      },
      "geometry": {
        "type": "Point",
        "coordinates": [
          -122.0892924,
          37.94730759999999
        ]
      }
    },
    {
      "type": "Feature",
      "properties": {
        "name": "Yolo County Juvenile Detention Facility",
        "description": "",
        "agency": "Yolo County",
        "address": "2880 East Gibson Road",
        "city": "Woodland",
        "state": "California",
        "zip": "95776",
        "source": "propublica",
        "marker-color": "#DE5B49",
        "marker-size": "medium",
        "marker-symbol": "c"
      },
      "geometry": {
        "type": "Point",
        "coordinates": [
          -121.729743,
          38.660341
        ]
      }
    },
    {
      "type": "Feature",
      "properties": {
        "name": "International Christian Adoptions",
        "description": "",
        "agency": "International Christian Adoptions",
        "address": "6248 Birdcage Street",
        "city": "Citrus Heights",
        "state": "California ",
        "zip": "95610",
        "source": "propublica",
        "marker-color": "#DE5B49",
        "marker-size": "medium",
        "marker-symbol": "c"
      },
      "geometry": {
        "type": "Point",
        "coordinates": [
          -121.2757354,
          38.6798131
        ]
      }
    },
    {
      "type": "Feature",
      "properties": {
        "name": "Noank Community Support Services",
        "description": "",
        "agency": "Noank Community Support Services, Inc",
        "address": "306 THAMES ST (have to check with Caroline)",
        "city": "Groton",
        "state": "Connecticut",
        "zip": "6340",
        "source": "propublica",
        "marker-color": "#DE5B49",
        "marker-size": "medium",
        "marker-symbol": "c"
      },
      "geometry": {
        "type": "Point",
        "coordinates": [
          -72.0829679,
          41.354427
        ]
      }
    },
    {
      "type": "Feature",
      "properties": {
        "name": "Homestead Temporary Shelter for Unaccompanied Children",
        "description": "",
        "agency": "Comprehensive Health Services",
        "address": "960 Bougainville Boulevard",
        "city": "Homestead",
        "state": "Florida",
        "zip": "33039",
        "source": "propublica",
        "marker-color": "#DE5B49",
        "marker-size": "medium",
        "marker-symbol": "c"
      },
      "geometry": {
        "type": "Point",
        "coordinates": [
          -80.39220019999999,
          25.4998751
        ]
      }
    },
    {
      "type": "Feature",
      "properties": {
        "name": "Catholic Charities Msgr. Bryan Walsh Childrens Village",
        "description": "",
        "agency": "Catholic Charities of the Archdiocese of Miami, Inc.",
        "address": "9525 Sterling Drive",
        "city": "Cutler Bay",
        "state": "Florida",
        "zip": "33157",
        "source": "propublica",
        "marker-color": "#DE5B49",
        "marker-size": "medium",
        "marker-symbol": "c"
      },
      "geometry": {
        "type": "Point",
        "coordinates": [
          -80.3468891,
          25.59552
        ]
      }
    },
    {
      "type": "Feature",
      "properties": {
        "name": "His House Children's Home",
        "description": "",
        "agency": "His House Children's Home",
        "address": "20000 N.W. 47th Avenue",
        "city": "Miami Gardens",
        "state": "Florida",
        "zip": "33055",
        "source": "propublica",
        "marker-color": "#DE5B49",
        "marker-size": "medium",
        "marker-symbol": "c"
      },
      "geometry": {
        "type": "Point",
        "coordinates": [
          -80.2796092,
          25.9559243
        ]
      }
    },
    {
      "type": "Feature",
      "properties": {
        "name": "The Villages, Inc.",
        "description": "",
        "agency": "The Villages, Inc.",
        "address": "7240 S.W. 10th Avenue",
        "city": "Topeka",
        "state": "Kansas",
        "zip": "66615",
        "source": "propublica",
        "marker-color": "#DE5B49",
        "marker-size": "medium",
        "marker-symbol": "c"
      },
      "geometry": {
        "type": "Point",
        "coordinates": [
          -95.7907712,
          39.0526015
        ]
      }
    },
    {
      "type": "Feature",
      "properties": {
        "name": "Board of Child Care of the United Methodist Church, Caminos Program",
        "description": "",
        "agency": "Board of Child Care of the United Methodist Church",
        "address": "3300 Gaither Road",
        "city": "Baltimore",
        "state": "Maryland",
        "zip": "21244",
        "source": "propublica",
        "marker-color": "#DE5B49",
        "marker-size": "medium",
        "marker-symbol": "c"
      },
      "geometry": {
        "type": "Point",
        "coordinates": [
          -76.760904,
          39.3467569
        ]
      }
    },
    {
      "type": "Feature",
      "properties": {
        "name": "Bethany Christian Services Maryland",
        "description": "",
        "agency": "Bethany Christian Services ",
        "address": "2142 Priest Bridge Court",
        "city": "Crofton",
        "state": "Maryland",
        "zip": "21114",
        "source": "propublica",
        "marker-color": "#DE5B49",
        "marker-size": "medium",
        "marker-symbol": "c"
      },
      "geometry": {
        "type": "Point",
        "coordinates": [
          -76.692664,
          38.988263
        ]
      }
    },
    {
      "type": "Feature",
      "properties": {
        "name": "Ascentria Care Alliance",
        "description": "",
        "agency": "Lutheran Immigration and Refugee Service",
        "address": "11 Shattuck Street",
        "city": "Worcester",
        "state": "Massachusetts ",
        "zip": "01605",
        "source": "propublica",
        "marker-color": "#DE5B49",
        "marker-size": "medium",
        "marker-symbol": "c"
      },
      "geometry": {
        "type": "Point",
        "coordinates": [
          -71.7892465,
          42.2866807
        ]
      }
    },
    {
      "type": "Feature",
      "properties": {
        "name": "Bethany Christian Services\n",
        "description": "",
        "agency": "Bethany Christian Services\n",
        "address": "901 Eastern Ave NE.\n ",
        "city": "Grand Rapids",
        "state": "Michigan",
        "zip": "49503",
        "source": "propublica",
        "marker-color": "#DE5B49",
        "marker-size": "medium",
        "marker-symbol": "c"
      },
      "geometry": {
        "type": "Point",
        "coordinates": [
          -85.6509552,
          42.979561
        ]
      }
    },
    {
      "type": "Feature",
      "properties": {
        "name": "Rising Ground ",
        "description": "",
        "agency": "Leake & Watts",
        "address": "1623 Glover Street",
        "city": "Bronx",
        "state": "New York",
        "zip": "10462",
        "source": "propublica",
        "marker-color": "#DE5B49",
        "marker-size": "medium",
        "marker-symbol": "c"
      },
      "geometry": {
        "type": "Point",
        "coordinates": [
          -73.852267,
          40.838274
        ]
      }
    },
    {
      "type": "Feature",
      "properties": {
        "name": "The Children's Village",
        "description": "",
        "agency": "Children's Village Inc",
        "address": "1 Echo Hills Road",
        "city": "Dobbs Ferry",
        "state": "New York",
        "zip": "10522",
        "source": "propublica",
        "marker-color": "#DE5B49",
        "marker-size": "medium",
        "marker-symbol": "c"
      },
      "geometry": {
        "type": "Point",
        "coordinates": [
          -73.8639177,
          41.0023488
        ]
      }
    },
    {
      "type": "Feature",
      "properties": {
        "name": "Cayuga Home for Children",
        "description": "",
        "agency": "Cayuga Centers",
        "address": "\n1767 Park Avenue",
        "city": "Harlem",
        "state": "New York",
        "zip": "10035",
        "source": "propublica",
        "marker-color": "#DE5B49",
        "marker-size": "medium",
        "marker-symbol": "c"
      },
      "geometry": {
        "type": "Point",
        "coordinates": [
          -73.9398856,
          40.8032419
        ]
      }
    },
    {
      "type": "Feature",
      "properties": {
        "name": "Abbott House ",
        "description": "",
        "agency": "Abbott House",
        "address": "100 N. Broadway",
        "city": "Irvington",
        "state": "New York",
        "zip": "10533",
        "source": "propublica",
        "marker-color": "#DE5B49",
        "marker-size": "medium",
        "marker-symbol": "c"
      },
      "geometry": {
        "type": "Point",
        "coordinates": [
          -73.85781779999999,
          41.0432363
        ]
      }
    },
    {
      "type": "Feature",
      "properties": {
        "name": "Children's Home of Kingston ",
        "description": "",
        "agency": "Children's Home of Kingston ",
        "address": "26 Grove Street",
        "city": "Kingston",
        "state": "New York",
        "zip": "12401",
        "source": "propublica",
        "marker-color": "#DE5B49",
        "marker-size": "medium",
        "marker-symbol": "c"
      },
      "geometry": {
        "type": "Point",
        "coordinates": [
          -73.9712771,
          41.923718
        ]
      }
    },
    {
      "type": "Feature",
      "properties": {
        "name": "Lincoln Hall Boys' Haven",
        "description": "",
        "agency": "Catholic Charities, Archdiocese of New York",
        "address": "145 Route 202",
        "city": "Lincolndale",
        "state": "New York",
        "zip": "10540",
        "source": "propublica",
        "marker-color": "#DE5B49",
        "marker-size": "medium",
        "marker-symbol": "c"
      },
      "geometry": {
        "type": "Point",
        "coordinates": [
          -73.747737,
          41.314416
        ]
      }
    },
    {
      "type": "Feature",
      "properties": {
        "name": "Lutheran Social Services of Metropolitan New York Safe Haven Program in NYC",
        "description": "",
        "agency": "Lutheran Social Services of Metropolitan New York ",
        "address": "475 Riverside Drive",
        "city": "New York",
        "state": "New York",
        "zip": "10115",
        "source": "propublica",
        "marker-color": "#DE5B49",
        "marker-size": "medium",
        "marker-symbol": "c"
      },
      "geometry": {
        "type": "Point",
        "coordinates": [
          -73.9636955,
          40.810813
        ]
      }
    },
    {
      "type": "Feature",
      "properties": {
        "name": "Hayden House Emergency Residence and School",
        "description": "",
        "agency": "Cardinal McCloskey Community Services",
        "address": "155 N. Highland Avenue",
        "city": "Ossining",
        "state": "New York",
        "zip": "10562",
        "source": "propublica",
        "marker-color": "#DE5B49",
        "marker-size": "medium",
        "marker-symbol": "c"
      },
      "geometry": {
        "type": "Point",
        "coordinates": [
          -73.8639135,
          41.1686077
        ]
      }
    },
    {
      "type": "Feature",
      "properties": {
        "name": "Mercy First ",
        "description": "",
        "agency": "MercyFirst",
        "address": "525 Convent Road",
        "city": "Syosset",
        "state": "New York",
        "zip": "11791",
        "source": "propublica",
        "marker-color": "#DE5B49",
        "marker-size": "medium",
        "marker-symbol": "c"
      },
      "geometry": {
        "type": "Point",
        "coordinates": [
          -73.4883134,
          40.8213673
        ]
      }
    },
    {
      "type": "Feature",
      "properties": {
        "name": "Rising Ground ",
        "description": "",
        "agency": "Leake & Watts",
        "address": "463 Hawthorne Avenue",
        "city": "Yonkers",
        "state": "New York",
        "zip": "10705",
        "source": "propublica",
        "marker-color": "#DE5B49",
        "marker-size": "medium",
        "marker-symbol": "c"
      },
      "geometry": {
        "type": "Point",
        "coordinates": [
          -73.90695079999999,
          40.9166934
        ]
      }
    },
    {
      "type": "Feature",
      "properties": {
        "name": "Jewish Child Care Association",
        "description": "",
        "agency": "Jewish Childcare Association of New York",
        "address": "555 Bergen Avenue",
        "city": "Bronx",
        "state": "New York ",
        "zip": "10455",
        "source": "propublica",
        "marker-color": "#DE5B49",
        "marker-size": "medium",
        "marker-symbol": "c"
      },
      "geometry": {
        "type": "Point",
        "coordinates": [
          -73.9166425,
          40.8159255
        ]
      }
    },
    {
      "type": "Feature",
      "properties": {
        "name": "Morrison Child and Family Services",
        "description": "",
        "agency": "Morrison Child& Family Services",
        "address": "1111 SW 10th Avenue",
        "city": "Portland",
        "state": "Oregon",
        "zip": "97205",
        "source": "propublica",
        "marker-color": "#DE5B49",
        "marker-size": "medium",
        "marker-symbol": "c"
      },
      "geometry": {
        "type": "Point",
        "coordinates": [
          -122.6840027,
          45.5169738
        ]
      }
    },
    {
      "type": "Feature",
      "properties": {
        "name": "Morrison Child & Family Services ",
        "description": "",
        "agency": "Morrison Child& Family Services",
        "address": "9911 SE. Mt Scott Boulevard",
        "city": "Portland",
        "state": "Oregon",
        "zip": "97266",
        "source": "propublica",
        "marker-color": "#DE5B49",
        "marker-size": "medium",
        "marker-symbol": "c"
      },
      "geometry": {
        "type": "Point",
        "coordinates": [
          -122.5608202,
          45.4671004
        ]
      }
    },
    {
      "type": "Feature",
      "properties": {
        "name": "Holy Family Institute",
        "description": "",
        "agency": "Holy Family Institute",
        "address": "8235 Ohio River Boulevard",
        "city": "Pittsburgh",
        "state": "Pennsylvania ",
        "zip": "15202",
        "source": "propublica",
        "marker-color": "#DE5B49",
        "marker-size": "medium",
        "marker-symbol": "c"
      },
      "geometry": {
        "type": "Point",
        "coordinates": [
          -80.0995793,
          40.51028580000001
        ]
      }
    },
    {
      "type": "Feature",
      "properties": {
        "name": "BCFS Health and Human Services International Children's Services Emergency Shelter ",
        "description": "",
        "agency": "BCFS",
        "address": "301 Ilfrey Avenue",
        "city": "Baytown ",
        "state": "Texas",
        "zip": "77520",
        "source": "propublica",
        "marker-color": "#DE5B49",
        "marker-size": "medium",
        "marker-symbol": "c"
      },
      "geometry": {
        "type": "Point",
        "coordinates": [
          -95.0565611,
          29.783809
        ]
      }
    },
    {
      "type": "Feature",
      "properties": {
        "name": "Southwest Key Program, Inc. Casa El Presidente",
        "description": "",
        "agency": "Southwest Key Program, Inc.",
        "address": "1 Ted Hunt Boulevard",
        "city": "Brownsville",
        "state": "Texas",
        "zip": "78521",
        "source": "propublica",
        "marker-color": "#DE5B49",
        "marker-size": "medium",
        "marker-symbol": "c"
      },
      "geometry": {
        "type": "Point",
        "coordinates": [
          -97.4500519,
          25.9444467
        ]
      }
    },
    {
      "type": "Feature",
      "properties": {
        "name": "Southwest Key Program, Inc. Nueva Esperanza ",
        "description": "",
        "agency": "Southwest Key Program, Inc.",
        "address": "321 Lorenaly Drive",
        "city": "Brownsville",
        "state": "Texas",
        "zip": "78526",
        "source": "propublica",
        "marker-color": "#DE5B49",
        "marker-size": "medium",
        "marker-symbol": "c"
      },
      "geometry": {
        "type": "Point",
        "coordinates": [
          -97.5112722,
          25.9736076
        ]
      }
    },
    {
      "type": "Feature",
      "properties": {
        "name": "Southwest Key Program, Inc. La Esperanza",
        "description": "",
        "agency": "Southwest Key Program, Inc.",
        "address": "504 E. Washington Street ",
        "city": "Brownsville",
        "state": "Texas",
        "zip": "78520",
        "source": "propublica",
        "marker-color": "#DE5B49",
        "marker-size": "medium",
        "marker-symbol": "c"
      },
      "geometry": {
        "type": "Point",
        "coordinates": [
          -97.5024325,
          25.9060625
        ]
      }
    },
    {
      "type": "Feature",
      "properties": {
        "name": "Southwest Key Program, Inc. Casa Padre",
        "description": "",
        "agency": "Southwest Key Program, Inc.",
        "address": "7480 Padre Island Highway",
        "city": "Brownsville",
        "state": "Texas",
        "zip": "78521",
        "source": "propublica",
        "marker-color": "#DE5B49",
        "marker-size": "medium",
        "marker-symbol": "c"
      },
      "geometry": {
        "type": "Point",
        "coordinates": [
          -97.4241089,
          25.9425644
        ]
      }
    },
    {
      "type": "Feature",
      "properties": {
        "name": "Southwest Key Program, Inc. Canutillo",
        "description": "",
        "agency": "Southwest Key Program, Inc.",
        "address": "400 Talbot Avenue",
        "city": "Canutillo",
        "state": "Texas",
        "zip": "79835",
        "source": "propublica",
        "marker-color": "#DE5B49",
        "marker-size": "medium",
        "marker-symbol": "c"
      },
      "geometry": {
        "type": "Point",
        "coordinates": [
          -106.5950979,
          31.907735
        ]
      }
    },
    {
      "type": "Feature",
      "properties": {
        "name": "Southwest Key Program, Inc. Casa Montezuma",
        "description": "",
        "agency": "Southwest Key Program, Inc.",
        "address": "15101 E. Freeway",
        "city": "Channelview",
        "state": "Texas",
        "zip": "77530",
        "source": "propublica",
        "marker-color": "#DE5B49",
        "marker-size": "medium",
        "marker-symbol": "c"
      },
      "geometry": {
        "type": "Point",
        "coordinates": [
          -95.14502089999999,
          29.7743966
        ]
      }
    },
    {
      "type": "Feature",
      "properties": {
        "name": "Southwest Key Program, Inc. Casita Del Valle",
        "description": "",
        "agency": "Southwest Key Program, Inc.",
        "address": "1855 Lee Moor Road",
        "city": "Clint",
        "state": "Texas",
        "zip": "79836",
        "source": "propublica",
        "marker-color": "#DE5B49",
        "marker-size": "medium",
        "marker-symbol": "c"
      },
      "geometry": {
        "type": "Point",
        "coordinates": [
          -106.2304252,
          31.53194749999999
        ]
      }
    },
    {
      "type": "Feature",
      "properties": {
        "name": "Southwest Key Program, Inc. Conroe",
        "description": "",
        "agency": "Southwest Key Program, Inc.",
        "address": "10393 League Line Road",
        "city": "Conroe",
        "state": "Texas",
        "zip": "77304",
        "source": "propublica",
        "marker-color": "#DE5B49",
        "marker-size": "medium",
        "marker-symbol": "c"
      },
      "geometry": {
        "type": "Point",
        "coordinates": [
          -95.5120197,
          30.3712018
        ]
      }
    },
    {
      "type": "Feature",
      "properties": {
        "name": "Upbring Bokenkamp Children's Center",
        "description": "",
        "agency": "Upbring",
        "address": "5517 S. Alameda Street",
        "city": "Corpus Christi",
        "state": "Texas",
        "zip": "78412",
        "source": "propublica",
        "marker-color": "#DE5B49",
        "marker-size": "medium",
        "marker-symbol": "c"
      },
      "geometry": {
        "type": "Point",
        "coordinates": [
          -97.3495638,
          27.7175024
        ]
      }
    },
    {
      "type": "Feature",
      "properties": {
        "name": "Southwest Key Program, Inc. Casa Franklin",
        "description": "",
        "agency": "Southwest Key Program, Inc.",
        "address": "315 E. Franklin Avenue",
        "city": "El Paso",
        "state": "Texas",
        "zip": "79901",
        "source": "propublica",
        "marker-color": "#DE5B49",
        "marker-size": "medium",
        "marker-symbol": "c"
      },
      "geometry": {
        "type": "Point",
        "coordinates": [
          -106.4878453,
          31.7620542
        ]
      }
    },
    {
      "type": "Feature",
      "properties": {
        "name": "Tornillo Tent City",
        "description": "",
        "agency": "BCFS",
        "address": "18051 Island Guadalupe Road",
        "city": "Fabens",
        "state": "Texas",
        "zip": "79838",
        "source": "propublica",
        "marker-color": "#DE5B49",
        "marker-size": "medium",
        "marker-symbol": "c"
      },
      "geometry": {
        "type": "Point",
        "coordinates": [
          -106.1488961,
          31.4415998
        ]
      }
    },
    {
      "type": "Feature",
      "properties": {
        "name": "Catholic Charities Fort Worth",
        "description": "",
        "agency": "Catholic Charities",
        "address": "249 W. Thornhill Drive",
        "city": "Fort Worth",
        "state": "Texas",
        "zip": "76115",
        "source": "propublica",
        "marker-color": "#DE5B49",
        "marker-size": "medium",
        "marker-symbol": "c"
      },
      "geometry": {
        "type": "Point",
        "coordinates": [
          -97.3274375,
          32.682583
        ]
      }
    },
    {
      "type": "Feature",
      "properties": {
        "name": "Southwest Key Program, Inc. Combes",
        "description": "",
        "agency": "Southwest Key Program, Inc.",
        "address": "23011 Rio Rancho Road",
        "city": "Harlingen",
        "state": "Texas",
        "zip": "78552",
        "source": "propublica",
        "marker-color": "#DE5B49",
        "marker-size": "medium",
        "marker-symbol": "c"
      },
      "geometry": {
        "type": "Point",
        "coordinates": [
          -97.7293219,
          26.2390524
        ]
      }
    },
    {
      "type": "Feature",
      "properties": {
        "name": "BCFS International Children's Shelter ",
        "description": "",
        "agency": "BCFS",
        "address": "3700 E. Harrison Avenue",
        "city": "Harlingen",
        "state": "Texas",
        "zip": "78550",
        "source": "propublica",
        "marker-color": "#DE5B49",
        "marker-size": "medium",
        "marker-symbol": "c"
      },
      "geometry": {
        "type": "Point",
        "coordinates": [
          -97.65462099999999,
          26.192739
        ]
      }
    },
    {
      "type": "Feature",
      "properties": {
        "name": "St. Michael's Home for Children",
        "description": "",
        "agency": "Catholic Charities of the Diocese of Galveston-Houston",
        "address": "2815 Smith Street",
        "city": "Houston",
        "state": "Texas",
        "zip": "77006",
        "source": "propublica",
        "marker-color": "#DE5B49",
        "marker-size": "medium",
        "marker-symbol": "c"
      },
      "geometry": {
        "type": "Point",
        "coordinates": [
          -95.3787215,
          29.7456541
        ]
      }
    },
    {
      "type": "Feature",
      "properties": {
        "name": "Southwest Key Program, Inc. Casa Houston",
        "description": "",
        "agency": "Southwest Key Program, Inc.",
        "address": "1550 La Concha Lane",
        "city": "Houston",
        "state": "Texas",
        "zip": "77054",
        "source": "propublica",
        "marker-color": "#DE5B49",
        "marker-size": "medium",
        "marker-symbol": "c"
      },
      "geometry": {
        "type": "Point",
        "coordinates": [
          -95.40679949999999,
          29.6908955
        ]
      }
    },
    {
      "type": "Feature",
      "properties": {
        "name": "Southwest Key Program, Inc. Casa Quetzal",
        "description": "",
        "agency": "Southwest Key Program, Inc.",
        "address": "7407 North Freeway",
        "city": "Houston",
        "state": "Texas",
        "zip": "77076",
        "source": "propublica",
        "marker-color": "#DE5B49",
        "marker-size": "medium",
        "marker-symbol": "c"
      },
      "geometry": {
        "type": "Point",
        "coordinates": [
          -95.4079665,
          29.8673192
        ]
      }
    },
    {
      "type": "Feature",
      "properties": {
        "name": "Southwest Key Program, Inc. Houston (Mesa Drive)",
        "description": "",
        "agency": "Southwest Key Program, Inc.",
        "address": "7900 Mesa Drive",
        "city": "Houston",
        "state": "Texas",
        "zip": "77028",
        "source": "propublica",
        "marker-color": "#DE5B49",
        "marker-size": "medium",
        "marker-symbol": "c"
      },
      "geometry": {
        "type": "Point",
        "coordinates": [
          -95.2611797,
          29.8345864
        ]
      }
    },
    {
      "type": "Feature",
      "properties": {
        "name": "Shiloh Treatment Center ",
        "description": "",
        "agency": "Shiloh Treatment Center",
        "address": "3926 Bahler Avenue",
        "city": "Manvel",
        "state": "Texas",
        "zip": "77578",
        "source": "propublica",
        "marker-color": "#DE5B49",
        "marker-size": "medium",
        "marker-symbol": "c"
      },
      "geometry": {
        "type": "Point",
        "coordinates": [
          -95.3525219,
          29.518488
        ]
      }
    },
    {
      "type": "Feature",
      "properties": {
        "name": "Upbring New Hope Children's Center",
        "description": "",
        "agency": "Upbring",
        "address": "1000 N. McColl Road",
        "city": "McAllen",
        "state": "Texas",
        "zip": "78501",
        "source": "propublica",
        "marker-color": "#DE5B49",
        "marker-size": "medium",
        "marker-symbol": "c"
      },
      "geometry": {
        "type": "Point",
        "coordinates": [
          -98.2104901,
          26.2099647
        ]
      }
    },
    {
      "type": "Feature",
      "properties": {
        "name": "BCFS Health and Human Services International Children's Services Emergency Shelter",
        "description": "",
        "agency": "BCFS",
        "address": "12985 FM 490",
        "city": "Raymondville",
        "state": "Texas",
        "zip": "78580",
        "source": "propublica",
        "marker-color": "#DE5B49",
        "marker-size": "medium",
        "marker-symbol": "c"
      },
      "geometry": {
        "type": "Point",
        "coordinates": [
          -97.792773,
          26.4520709
        ]
      }
    },
    {
      "type": "Feature",
      "properties": {
        "name": "Seton Home",
        "description": "",
        "agency": "Catholic Charities Archbid of San Antonio ",
        "address": "1115 Mission Road ",
        "city": "San Antonio",
        "state": "Texas",
        "zip": "78210",
        "source": "propublica",
        "marker-color": "#DE5B49",
        "marker-size": "medium",
        "marker-symbol": "c"
      },
      "geometry": {
        "type": "Point",
        "coordinates": [
          -98.4910637,
          29.3878763
        ]
      }
    },
    {
      "type": "Feature",
      "properties": {
        "name": "Southwest Key Program, Inc. Casa Blanca",
        "description": "",
        "agency": "Southwest Key Program, Inc.",
        "address": "27102 Enchanted Eve",
        "city": "San Antonio",
        "state": "Texas",
        "zip": "78260",
        "source": "propublica",
        "marker-color": "#DE5B49",
        "marker-size": "medium",
        "marker-symbol": "c"
      },
      "geometry": {
        "type": "Point",
        "coordinates": [
          -98.4959014,
          29.7049578
        ]
      }
    },
    {
      "type": "Feature",
      "properties": {
        "name": "Unnamed facility operated by BCFS Health and Human Services ",
        "description": "",
        "agency": "BCFS",
        "address": "7404 W. U.S. Highway 90",
        "city": "San Antonio",
        "state": "Texas",
        "zip": "78227",
        "source": "propublica",
        "marker-color": "#DE5B49",
        "marker-size": "medium",
        "marker-symbol": "c"
      },
      "geometry": {
        "type": "Point",
        "coordinates": [
          -98.6318769,
          29.4013762
        ]
      }
    },
    {
      "type": "Feature",
      "properties": {
        "name": "St Peter - St Joseph Childrens Home Emergency Shelter",
        "description": "",
        "agency": "St Peter - St Joseph Childrens Home",
        "address": "919 Mission Road",
        "city": "San Antonio",
        "state": "Texas",
        "zip": "78210",
        "source": "propublica",
        "marker-color": "#DE5B49",
        "marker-size": "medium",
        "marker-symbol": "c"
      },
      "geometry": {
        "type": "Point",
        "coordinates": [
          -98.49254549999999,
          29.3882489
        ]
      }
    },
    {
      "type": "Feature",
      "properties": {
        "name": "BCFS Health and Human Services International Children's Services Emergency Shelter",
        "description": "",
        "agency": "BCFS",
        "address": "1339 West Chavaneaux Road",
        "city": "San Antonio ",
        "state": "Texas",
        "zip": "78224",
        "source": "propublica",
        "marker-color": "#DE5B49",
        "marker-size": "medium",
        "marker-symbol": "c"
      },
      "geometry": {
        "type": "Point",
        "coordinates": [
          -98.52803259999999,
          29.3214008
        ]
      }
    },
    {
      "type": "Feature",
      "properties": {
        "name": "Southwest Key Program, Inc. Casa Antigua",
        "description": "",
        "agency": "Southwest Key Program, Inc.",
        "address": "502 E. Expressway 77 83 ",
        "city": "San Benito",
        "state": "Texas",
        "zip": "78586",
        "source": "propublica",
        "marker-color": "#DE5B49",
        "marker-size": "medium",
        "marker-symbol": "c"
      },
      "geometry": {
        "type": "Point",
        "coordinates": [
          -97.632978,
          26.1235886
        ]
      }
    },
    {
      "type": "Feature",
      "properties": {
        "name": "Southwest Key Program, Inc. Casa Rio Grande ",
        "description": "",
        "agency": "Southwest Key Program, Inc.",
        "address": "401 E. Business Highway 77 ",
        "city": "San Benito",
        "state": "Texas",
        "zip": "78586",
        "source": "propublica",
        "marker-color": "#DE5B49",
        "marker-size": "medium",
        "marker-symbol": "c"
      },
      "geometry": {
        "type": "Point",
        "coordinates": [
          -97.633772,
          26.1234561
        ]
      }
    },
    {
      "type": "Feature",
      "properties": {
        "name": "Northern Virginia Juvenile Detention Center ",
        "description": "",
        "agency": "Commonwealth of Virginia",
        "address": "200 S. Whiting Street",
        "city": "Alexandria",
        "state": "Virginia ",
        "zip": "22304",
        "source": "propublica",
        "marker-color": "#DE5B49",
        "marker-size": "medium",
        "marker-symbol": "c"
      },
      "geometry": {
        "type": "Point",
        "coordinates": [
          -77.135425,
          38.812185
        ]
      }
    },
    {
      "type": "Feature",
      "properties": {
        "name": "Youth for Tomorrow",
        "description": "",
        "agency": "Youth For Tomorrow Foundation",
        "address": "11835 Hazel Circle Drive",
        "city": "Bristow",
        "state": "Virginia ",
        "zip": "20136",
        "source": "propublica",
        "marker-color": "#DE5B49",
        "marker-size": "medium",
        "marker-symbol": "c"
      },
      "geometry": {
        "type": "Point",
        "coordinates": [
          -77.5477586,
          38.7417097
        ]
      }
    },
    {
      "type": "Feature",
      "properties": {
        "name": "Commonwealth Catholic Charities",
        "description": "",
        "agency": "Commonwealth Catholic Charities",
        "address": "1601 Rolling Hills Drive",
        "city": "Richmond",
        "state": "Virginia ",
        "zip": "23229",
        "source": "propublica",
        "marker-color": "#DE5B49",
        "marker-size": "medium",
        "marker-symbol": "c"
      },
      "geometry": {
        "type": "Point",
        "coordinates": [
          -77.545436,
          37.6031199
        ]
      }
    },
    {
      "type": "Feature",
      "properties": {
        "name": "Shenandoah Valley Juvenile Center",
        "description": "",
        "agency": "Shenandoah Valley Juvenile Center Commission",
        "address": "300 Technology Drive",
        "city": "Staunton",
        "state": "Virginia ",
        "zip": "24401",
        "source": "propublica",
        "marker-color": "#DE5B49",
        "marker-size": "medium",
        "marker-symbol": "c"
      },
      "geometry": {
        "type": "Point",
        "coordinates": [
          -79.01302919999999,
          38.190781
        ]
      }
    },
    {
      "type": "Feature",
      "properties": {
        "name": "Selma Carson Home",
        "description": "",
        "agency": "Pioneer Human Services ",
        "address": "619 54th Avenue E",
        "city": "Tacoma",
        "state": "Washington",
        "zip": "98424",
        "source": "propublica",
        "marker-color": "#DE5B49",
        "marker-size": "medium",
        "marker-symbol": "c"
      },
      "geometry": {
        "type": "Point",
        "coordinates": [
          -122.3555531,
          47.2507016
        ]
      }
    },
    {
      "type": "Feature",
      "properties": {
        "name": "KidsPeace",
        "description": "",
        "agency": "KidsPeace ",
        "address": "1650 Broadway",
        "city": "Bethlehem",
        "state": "Pennsylvania ",
        "zip": "18015",
        "source": "propublica",
        "marker-color": "#DE5B49",
        "marker-size": "medium",
        "marker-symbol": "c"
      },
      "geometry": {
        "type": "Point",
        "coordinates": [
          -75.4065482,
          40.5962746
        ]
      }
    }
  ]
}