{"type":"FeatureCollection","features":[{"type":"Feature","properties":{"name":"Papaop Well","description":"","agency":"CBP","address":"","city":"Wellton","state":"AZ","zip":"","source":"ancillary","marker-color":"#F0CA4D","marker-size":"medium","marker-symbol":"a"},"geometry":{"type":"Polygon","coordinates":[[[-113.64409064395598,32.5313017609978],[-113.58626271145175,32.5313017609978],[-113.58626271145175,32.580043128306976],[-113.64409064395598,32.580043128306976],[-113.64409064395598,32.5313017609978]]]}},{"type":"Feature","properties":{"name":"Anomaly","description":"","agency":"CBP","address":"","city":"","state":"AZ","zip":"","source":"ancillary","marker-color":"#F0CA4D","marker-size":"medium","marker-symbol":"a"},"geometry":{"type":"Polygon","coordinates":[[[-113.4573445235031,32.25192094770242],[-113.39951659099887,32.25192094770242],[-113.39951659099887,32.30081343065396],[-113.4573445235031,32.30081343065396],[-113.4573445235031,32.25192094770242]]]}},{"type":"Feature","properties":{"name":"Naval Base Ventura County South","description":"","agency":"DOD","address":"311 Main Rd #355","city":"NAS Point Mugu","state":"CA","zip":"93042","source":"ancillary","marker-color":"#F0CA4D","marker-size":"medium","marker-symbol":"a"},"geometry":{"type":"Polygon","coordinates":[[[-119.13607453448942,34.0883595809694],[-119.07824660198519,34.0883595809694],[-119.07824660198519,34.13623763521545],[-119.13607453448942,34.13623763521545],[-119.13607453448942,34.0883595809694]]]}},{"type":"Feature","properties":{"name":"Naval Base Ventura County North","description":"","agency":"DOD","address":"Stethem Rd","city":"Port Hueneme","state":"CA","zip":"93043","source":"ancillary","marker-color":"#F0CA4D","marker-size":"medium","marker-symbol":"a"},"geometry":{"type":"Polygon","coordinates":[[[-119.23821305377652,34.13135372823941],[-119.18038512127228,34.13135372823941],[-119.18038512127228,34.17920744012149],[-119.23821305377652,34.17920744012149],[-119.23821305377652,34.13135372823941]]]}},{"type":"Feature","properties":{"name":"PCT Test 1","description":"","agency":"CBP","address":"","city":"Mojave","state":"CA","zip":"","source":"ancillary","marker-color":"#F0CA4D","marker-size":"medium","marker-symbol":"a"},"geometry":{"type":"Polygon","coordinates":[[[-118.2985489662521,35.11101567654181],[-118.24072103374789,35.11101567654181],[-118.24072103374789,35.15830745615671],[-118.2985489662521,35.15830745615671],[-118.2985489662521,35.11101567654181]]]}},{"type":"Feature","properties":{"name":"Adelanto ICE Processing Center","description":"","agency":"ICE","address":"Adelanto East 10400 Rancho Road | Adelanto West 10250 Rancho Road","city":"Adelanto","state":"CA","zip":"92301","source":"ice","marker-color":"#E37B40","marker-size":"medium","marker-symbol":"i"},"geometry":{"type":"Polygon","coordinates":[[[-117.46991396625212,34.53538476939025],[-117.41208603374791,34.53538476939025],[-117.41208603374791,34.58300841416594],[-117.46991396625212,34.58300841416594],[-117.46991396625212,34.53538476939025]]]}},{"type":"Feature","properties":{"name":"Contra Costa West County Detention Facility","description":"","agency":"ICE","address":"5555 Giant Highway","city":"Richmond","state":"CA","zip":"94806","source":"ice","marker-color":"#E37B40","marker-size":"medium","marker-symbol":"i"},"geometry":{"type":"Polygon","coordinates":[[[-122.38291396625212,37.97161020485812],[-122.32508603374791,37.97161020485812],[-122.32508603374791,38.01718271657027],[-122.38291396625212,38.01718271657027],[-122.38291396625212,37.97161020485812]]]}},{"type":"Feature","properties":{"name":"Santa Ana City Jail","description":"","agency":"ICE","address":"62 Civic Center Plaza","city":"Santa Ana","state":"CA","zip":"92701","source":"ice","marker-color":"#E37B40","marker-size":"medium","marker-symbol":"i"},"geometry":{"type":"Polygon","coordinates":[[[-117.9029139662521,33.72425506941277],[-117.84508603374786,33.72425506941277],[-117.84508603374786,33.772338190471515],[-117.9029139662521,33.772338190471515],[-117.9029139662521,33.72425506941277]]]}},{"type":"Feature","properties":{"name":"Yuba County Jail","description":"","agency":"ICE","address":"215 5th St.","city":"Marysville","state":"CA","zip":"95901","source":"ice","marker-color":"#E37B40","marker-size":"medium","marker-symbol":"i"},"geometry":{"type":"Polygon","coordinates":[[[-121.61591396625212,39.11867093531009],[-121.5580860337479,39.11867093531009],[-121.5580860337479,39.163521921104426],[-121.61591396625212,39.163521921104426],[-121.61591396625212,39.11867093531009]]]}},{"type":"Feature","properties":{"name":"Rio Cosumnes Correctional Center","description":"","agency":"ICE","address":"12500 Bruceville Road","city":"Elk Grove","state":"CA","zip":"95757","source":"ice","marker-color":"#E37B40","marker-size":"medium","marker-symbol":"i"},"geometry":{"type":"Polygon","coordinates":[[[-121.45091396625212,38.28360742461234],[-121.39308603374788,38.28360742461234],[-121.39308603374788,38.32898547800498],[-121.45091396625212,38.32898547800498],[-121.45091396625212,38.28360742461234]]]}},{"type":"Feature","properties":{"name":"Mesa Verde ICE Processing Facility","description":"","agency":"ICE","address":"425 Golden State Avenue","city":"Bakersfield","state":"CA","zip":"93301 ","source":"ice","marker-color":"#E37B40","marker-size":"medium","marker-symbol":"i"},"geometry":{"type":"Polygon","coordinates":[[[-119.0349139662521,35.35642213350349],[-118.97708603374788,35.35642213350349],[-118.97708603374788,35.40357097835442],[-119.0349139662521,35.40357097835442],[-119.0349139662521,35.35642213350349]]]}},{"type":"Feature","properties":{"name":"James A. Musick Facility","description":"","agency":"ICE","address":"13502 Musick Road","city":"Irvine","state":"CA","zip":"92618","source":"ice","marker-color":"#E37B40","marker-size":"medium","marker-symbol":"i"},"geometry":{"type":"Polygon","coordinates":[[[-117.73191396625212,33.63843104631755],[-117.6740860337479,33.63843104631755],[-117.6740860337479,33.686562221959896],[-117.73191396625212,33.686562221959896],[-117.73191396625212,33.63843104631755]]]}},{"type":"Feature","properties":{"name":"Theo Lacy Facility","description":"","agency":"ICE","address":"501 The City Drive","city":"South Orange","state":"CA","zip":"92868 ","source":"ice","marker-color":"#E37B40","marker-size":"medium","marker-symbol":"i"},"geometry":{"type":"Polygon","coordinates":[[[-117.91691396625212,33.757764463705],[-117.8590860337479,33.757764463705],[-117.8590860337479,33.805828792918625],[-117.91691396625212,33.805828792918625],[-117.91691396625212,33.757764463705]]]}},{"type":"Feature","properties":{"name":"Henderson Detention Center","description":"","agency":"ICE","address":"18 S. Water St.","city":"Henderson","state":"NV","zip":"89015","source":"ice","marker-color":"#E37B40","marker-size":"medium","marker-symbol":"i"},"geometry":{"type":"Polygon","coordinates":[[[-115.00791396625212,36.007613838450965],[-114.95008603374791,36.007613838450965],[-114.95008603374791,36.05437922055894],[-115.00791396625212,36.05437922055894],[-115.00791396625212,36.007613838450965]]]}},{"type":"Feature","properties":{"name":"Nevada Southern Detention Center ","description":"","agency":"ICE","address":"2190 E Mesquite Avenue","city":"Pahrump","state":"NV","zip":"89048","source":"ice","marker-color":"#E37B40","marker-size":"medium","marker-symbol":"i"},"geometry":{"type":"Polygon","coordinates":[[[-116.00391396625211,36.229679904362975],[-115.94608603374787,36.229679904362975],[-115.94608603374787,36.276313137443154],[-116.00391396625211,36.276313137443154],[-116.00391396625211,36.229679904362975]]]}},{"type":"Feature","properties":{"name":"Washoe County Jail","description":"","agency":"ICE","address":"911 E Parr Blvd","city":"Reno","state":"NV","zip":"89512","source":"ice","marker-color":"#E37B40","marker-size":"medium","marker-symbol":"i"},"geometry":{"type":"Polygon","coordinates":[[[-119.83991396625211,39.551809494666045],[-119.78208603374787,39.551809494666045],[-119.78208603374787,39.59638334017034],[-119.83991396625211,39.59638334017034],[-119.83991396625211,39.551809494666045]]]}},{"type":"Feature","properties":{"name":"Imperial Regional Detention Facility","description":"","agency":"ICE","address":"1572 Gateway Road","city":"Calexico","state":"CA","zip":"92231","source":"ice","marker-color":"#E37B40","marker-size":"medium","marker-symbol":"i"},"geometry":{"type":"Polygon","coordinates":[[[-115.42691396625213,32.6664627619709],[-115.3690860337479,32.6664627619709],[-115.3690860337479,32.715130605556354],[-115.42691396625213,32.715130605556354],[-115.42691396625213,32.6664627619709]]]}},{"type":"Feature","properties":{"name":"Otay Mesa Detention Center","description":"","agency":"ICE","address":"7488 Calzada de la Fuente","city":"San Diego","state":"CA","zip":"92231","source":"ice","marker-color":"#E37B40","marker-size":"medium","marker-symbol":"i"},"geometry":{"type":"Polygon","coordinates":[[[-116.94391396625213,32.55063125532572],[-116.8860860337479,32.55063125532572],[-116.8860860337479,32.59936212454051],[-116.94391396625213,32.59936212454051],[-116.94391396625213,32.55063125532572]]]}},{"type":"Feature","properties":{"name":"Papaop Well","description":"","agency":"CPB","address":"","city":"Wellton","state":"AZ","zip":"","source":"ancillary","marker-color":"#F0CA4D","marker-size":"medium","marker-symbol":"a"},"geometry":{"type":"Polygon","coordinates":[[[-113.6730046102081,32.50692115286171],[-113.55734874519963,32.50692115286171],[-113.55734874519963,32.6044038822561],[-113.6730046102081,32.6044038822561],[-113.6730046102081,32.50692115286171]]]}},{"type":"Feature","properties":{"name":"Anomaly","description":"","agency":"CPB","address":"","city":"","state":"AZ","zip":"","source":"ancillary","marker-color":"#F0CA4D","marker-size":"medium","marker-symbol":"a"},"geometry":{"type":"Polygon","coordinates":[[[-113.4862584897552,32.227464827182175],[-113.37060262474678,32.227464827182175],[-113.37060262474678,32.325249787735196],[-113.4862584897552,32.325249787735196],[-113.4862584897552,32.227464827182175]]]}},{"type":"Feature","properties":{"name":"Naval Base Ventura County South","description":"","agency":"DOD","address":"311 Main Rd #355","city":"NAS Point Mugu","state":"CA","zip":"93042","source":"ancillary","marker-color":"#F0CA4D","marker-size":"medium","marker-symbol":"a"},"geometry":{"type":"Polygon","coordinates":[[[-119.16498850074153,34.06441039353557],[-119.04933263573308,34.06441039353557],[-119.04933263573308,34.16016649750451],[-119.16498850074153,34.16016649750451],[-119.16498850074153,34.06441039353557]]]}},{"type":"Feature","properties":{"name":"Naval Base Ventura County North","description":"","agency":"DOD","address":"Stethem Rd","city":"Port Hueneme","state":"CA","zip":"93043","source":"ancillary","marker-color":"#F0CA4D","marker-size":"medium","marker-symbol":"a"},"geometry":{"type":"Polygon","coordinates":[[[-119.26712702002864,34.107416705898416],[-119.15147115502018,34.107416705898416],[-119.15147115502018,34.20312412515868],[-119.26712702002864,34.20312412515868],[-119.26712702002864,34.107416705898416]]]}},{"type":"Feature","properties":{"name":"Adelanto ICE Processing Center","description":"","agency":"ICE","address":"Adelanto East 10400 Rancho Road | Adelanto West 10250 Rancho Road","city":"Adelanto","state":"CA","zip":"92301","source":"ice","marker-color":"#E37B40","marker-size":"medium","marker-symbol":"i"},"geometry":{"type":"Polygon","coordinates":[[[-117.49882793250426,34.51156272450082],[-117.38317206749579,34.51156272450082],[-117.38317206749579,34.60681000972928],[-117.49882793250426,34.60681000972928],[-117.49882793250426,34.51156272450082]]]}},{"type":"Feature","properties":{"name":"Contra Costa West County Detention Facility","description":"","agency":"ICE","address":"5555 Giant Highway","city":"Richmond","state":"CA","zip":"94806","source":"ice","marker-color":"#E37B40","marker-size":"medium","marker-symbol":"i"},"geometry":{"type":"Polygon","coordinates":[[[-122.41182793250424,37.94881333255206],[-122.29617206749579,37.94881333255206],[-122.29617206749579,38.03995835316645],[-122.41182793250424,38.03995835316645],[-122.41182793250424,37.94881333255206]]]}},{"type":"Feature","properties":{"name":"Santa Ana City Jail","description":"","agency":"ICE","address":"62 Civic Center Plaza","city":"Santa Ana","state":"CA","zip":"92701","source":"ice","marker-color":"#E37B40","marker-size":"medium","marker-symbol":"i"},"geometry":{"type":"Polygon","coordinates":[[[-117.9318279325042,33.70020340105586],[-117.81617206749577,33.70020340105586],[-117.81617206749577,33.796369638486695],[-117.9318279325042,33.796369638486695],[-117.9318279325042,33.70020340105586]]]}},{"type":"Feature","properties":{"name":"Yuba County Jail","description":"","agency":"ICE","address":"215 5th St.","city":"Marysville","state":"CA","zip":"95901","source":"ice","marker-color":"#E37B40","marker-size":"medium","marker-symbol":"i"},"geometry":{"type":"Polygon","coordinates":[[[-121.64482793250424,39.09623472819691],[-121.52917206749581,39.09623472819691],[-121.52917206749581,39.18593669746588],[-121.64482793250424,39.18593669746588],[-121.64482793250424,39.09623472819691]]]}},{"type":"Feature","properties":{"name":"Rio Cosumnes Correctional Center","description":"","agency":"ICE","address":"12500 Bruceville Road","city":"Elk Grove","state":"CA","zip":"95757","source":"ice","marker-color":"#E37B40","marker-size":"medium","marker-symbol":"i"},"geometry":{"type":"Polygon","coordinates":[[[-121.47982793250424,38.260907753182295],[-121.36417206749579,38.260907753182295],[-121.36417206749579,38.35166385729191],[-121.47982793250424,38.35166385729191],[-121.47982793250424,38.260907753182295]]]}},{"type":"Feature","properties":{"name":"Mesa Verde ICE Processing Facility","description":"","agency":"ICE","address":"425 Golden State Avenue","city":"Bakersfield","state":"CA","zip":"93301 ","source":"ice","marker-color":"#E37B40","marker-size":"medium","marker-symbol":"i"},"geometry":{"type":"Polygon","coordinates":[[[-119.06382793250422,35.33283738084594],[-118.94817206749576,35.33283738084594],[-118.94817206749576,35.42713506659113],[-119.06382793250422,35.42713506659113],[-119.06382793250422,35.33283738084594]]]}},{"type":"Feature","properties":{"name":"James A. Musick Facility","description":"","agency":"ICE","address":"13502 Musick Road","city":"Irvine","state":"CA","zip":"92618","source":"ice","marker-color":"#E37B40","marker-size":"medium","marker-symbol":"i"},"geometry":{"type":"Polygon","coordinates":[[[-117.76082793250421,33.614355363277866],[-117.64517206749579,33.614355363277866],[-117.64517206749579,33.71061770983732],[-117.76082793250421,33.71061770983732],[-117.76082793250421,33.614355363277866]]]}},{"type":"Feature","properties":{"name":"Theo Lacy Facility","description":"","agency":"ICE","address":"501 The City Drive","city":"South Orange","state":"CA","zip":"92868 ","source":"ice","marker-color":"#E37B40","marker-size":"medium","marker-symbol":"i"},"geometry":{"type":"Polygon","coordinates":[[[-117.94582793250423,33.73372218637214],[-117.8301720674958,33.73372218637214],[-117.8301720674958,33.82985084012779],[-117.94582793250423,33.82985084012779],[-117.94582793250423,33.73372218637214]]]}},{"type":"Feature","properties":{"name":"Henderson Detention Center","description":"","agency":"ICE","address":"18 S. Water St.","city":"Henderson","state":"NV","zip":"89015","source":"ice","marker-color":"#E37B40","marker-size":"medium","marker-symbol":"i"},"geometry":{"type":"Polygon","coordinates":[[[-115.03682793250424,35.98422073774837],[-114.9211720674958,35.98422073774837],[-114.9211720674958,36.07775149829634],[-115.03682793250424,36.07775149829634],[-115.03682793250424,35.98422073774837]]]}},{"type":"Feature","properties":{"name":"Nevada Southern Detention Center ","description":"","agency":"ICE","address":"2190 E Mesquite Avenue","city":"Pahrump","state":"NV","zip":"89048","source":"ice","marker-color":"#E37B40","marker-size":"medium","marker-symbol":"i"},"geometry":{"type":"Polygon","coordinates":[[[-116.0328279325042,36.20635285231966],[-115.91717206749577,36.20635285231966],[-115.91717206749577,36.29961931491006],[-116.0328279325042,36.29961931491006],[-116.0328279325042,36.20635285231966]]]}},{"type":"Feature","properties":{"name":"Washoe County Jail","description":"","agency":"ICE","address":"911 E Parr Blvd","city":"Reno","state":"NV","zip":"89512","source":"ice","marker-color":"#E37B40","marker-size":"medium","marker-symbol":"i"},"geometry":{"type":"Polygon","coordinates":[[[-119.86882793250425,39.529511825239396],[-119.75317206749578,39.529511825239396],[-119.75317206749578,39.61865951411085],[-119.86882793250425,39.61865951411085],[-119.86882793250425,39.529511825239396]]]}},{"type":"Feature","properties":{"name":"Imperial Regional Detention Facility","description":"","agency":"ICE","address":"1572 Gateway Road","city":"Calexico","state":"CA","zip":"92231","source":"ice","marker-color":"#E37B40","marker-size":"medium","marker-symbol":"i"},"geometry":{"type":"Polygon","coordinates":[[[-115.45582793250425,32.642118894053255],[-115.34017206749579,32.642118894053255],[-115.34017206749579,32.739454576061156],[-115.45582793250425,32.739454576061156],[-115.45582793250425,32.642118894053255]]]}},{"type":"Feature","properties":{"name":"Otay Mesa Detention Center","description":"","agency":"ICE","address":"7488 Calzada de la Fuente","city":"San Diego","state":"CA","zip":"92231","source":"ice","marker-color":"#E37B40","marker-size":"medium","marker-symbol":"i"},"geometry":{"type":"Polygon","coordinates":[[[-116.97282793250425,32.52625589312804],[-116.85717206749578,32.52625589312804],[-116.85717206749578,32.62371762634238],[-116.97282793250425,32.62371762634238],[-116.97282793250425,32.52625589312804]]]}},{"type":"Feature","properties":{"name":"Southwest Key Program, Inc. Casa San Diego","description":"","agency":"Southwest Key Program, Inc.","address":"1160 Broadway","city":"El Cajon","state":"Calfornia","zip":"92021","source":"propublica","marker-color":"#DE5B49","marker-size":"medium","marker-symbol":"c"},"geometry":{"type":"Polygon","coordinates":[[[-116.99944433250424,32.759659910653085],[-116.88378846749578,32.759659910653085],[-116.88378846749578,32.856867309833596],[-116.99944433250424,32.856867309833596],[-116.99944433250424,32.759659910653085]]]}},{"type":"Feature","properties":{"name":"Southwest Key Program, Inc. Lemon Grove","description":"","agency":"Southwest Key Program, Inc.","address":"2205 El Prado Avenue","city":"Lemon Grove","state":"Calfornia","zip":"94145","source":"propublica","marker-color":"#DE5B49","marker-size":"medium","marker-symbol":"c"},"geometry":{"type":"Polygon","coordinates":[[[-117.09498623250424,32.68010529260392],[-116.97933036749578,32.68010529260392],[-116.97933036749578,32.77739956142319],[-117.09498623250424,32.77739956142319],[-117.09498623250424,32.68010529260392]]]}},{"type":"Feature","properties":{"name":"Unnamed facility operated by Southwest Key Program, Inc.","description":"","agency":"Southwest Key Program, Inc.","address":"9780 Dunbar Lane","city":"El Cajon","state":"California","zip":"92021","source":"propublica","marker-color":"#DE5B49","marker-size":"medium","marker-symbol":"c"},"geometry":{"type":"Polygon","coordinates":[[[-116.88107853250423,32.813800912424696],[-116.76542266749578,32.813800912424696],[-116.76542266749578,32.91094908535311],[-116.88107853250423,32.91094908535311],[-116.88107853250423,32.813800912424696]]]}},{"type":"Feature","properties":{"name":"BCFS Health and Human Services Fairfield","description":"","agency":"BCFS","address":"2301 Pennsylvania Avenue","city":"Fairfield","state":"California","zip":"94533","source":"propublica","marker-color":"#DE5B49","marker-size":"medium","marker-symbol":"c"},"geometry":{"type":"Polygon","coordinates":[[[-122.10805723250422,38.22598292963716],[-121.99240136749579,38.22598292963716],[-121.99240136749579,38.31678268909017],[-122.10805723250422,38.31678268909017],[-122.10805723250422,38.22598292963716]]]}},{"type":"Feature","properties":{"name":"Crittenton Foster Care and Adoption Agency","description":"","agency":"Crittenton Services for Children and Families ","address":"801 E. Chapman Avenue","city":"Fullerton","state":"California","zip":"92831","source":"propublica","marker-color":"#DE5B49","marker-size":"medium","marker-symbol":"c"},"geometry":{"type":"Polygon","coordinates":[[[-117.96885983250424,33.826539690923234],[-117.85320396749577,33.826539690923234],[-117.85320396749577,33.92256409965286],[-117.96885983250424,33.92256409965286],[-117.96885983250424,33.826539690923234]]]}},{"type":"Feature","properties":{"name":"David & Margaret Youth and Family Services","description":"","agency":"David & Margaret Youth and Family Services","address":"1350 3rd Street","city":"La Verne","state":"California","zip":"91750","source":"propublica","marker-color":"#DE5B49","marker-size":"medium","marker-symbol":"c"},"geometry":{"type":"Polygon","coordinates":[[[-117.84330643250422,34.05451870471993],[-117.7276505674958,34.05451870471993],[-117.7276505674958,34.150285998822696],[-117.84330643250422,34.150285998822696],[-117.84330643250422,34.05451870471993]]]}},{"type":"Feature","properties":{"name":"Nuevo Amanecer Latino Children's Services","description":"","agency":"Nuevo Amanecer Latino Children's Services","address":"5400 Pomona Boulevard","city":"Los Angeles ","state":"California","zip":"90022","source":"propublica","marker-color":"#DE5B49","marker-size":"medium","marker-symbol":"c"},"geometry":{"type":"Polygon","coordinates":[[[-118.20735083250423,33.98523927105406],[-118.09169496749578,33.98523927105406],[-118.09169496749578,34.08108485875565],[-118.20735083250423,34.08108485875565],[-118.20735083250423,33.98523927105406]]]}},{"type":"Feature","properties":{"name":"Southwest Key Program, Inc. Pleasant Hill","description":"","agency":"Southwest Key","address":"808 Grayson Road","city":"Pleasant Hill","state":"California","zip":"94523","source":"propublica","marker-color":"#DE5B49","marker-size":"medium","marker-symbol":"c"},"geometry":{"type":"Polygon","coordinates":[[[-122.14712033250426,37.90169169519119],[-122.0314644674958,37.90169169519119],[-122.0314644674958,37.99289520217992],[-122.14712033250426,37.99289520217992],[-122.14712033250426,37.90169169519119]]]}},{"type":"Feature","properties":{"name":"Yolo County Juvenile Detention Facility","description":"","agency":"Yolo County","address":"2880 East Gibson Road","city":"Woodland","state":"California","zip":"95776","source":"propublica","marker-color":"#DE5B49","marker-size":"medium","marker-symbol":"c"},"geometry":{"type":"Polygon","coordinates":[[[-121.78757093250424,38.615171073343255],[-121.67191506749579,38.615171073343255],[-121.67191506749579,38.70548245579866],[-121.78757093250424,38.70548245579866],[-121.78757093250424,38.615171073343255]]]}},{"type":"Feature","properties":{"name":"International Christian Adoptions","description":"","agency":"International Christian Adoptions","address":"6248 Birdcage Street","city":"Citrus Heights","state":"California ","zip":"95610","source":"propublica","marker-color":"#DE5B49","marker-size":"medium","marker-symbol":"c"},"geometry":{"type":"Polygon","coordinates":[[[-121.33356333250421,38.634655451016926],[-121.21790746749579,38.634655451016926],[-121.21790746749579,38.724942273777735],[-121.33356333250421,38.724942273777735],[-121.33356333250421,38.634655451016926]]]}},{"type":"Feature","properties":{"name":"Southwest Key Program, Inc. Casa San Diego","description":"","agency":"Southwest Key Program, Inc.","address":"1160 Broadway","city":"El Cajon","state":"Calfornia","zip":"92021","source":"propublica","marker-color":"#DE5B49","marker-size":"medium","marker-symbol":"c"},"geometry":{"type":"Polygon","coordinates":[[[-116.97053036625212,32.78397172648751],[-116.9127024337479,32.78397172648751],[-116.9127024337479,32.83257542863278],[-116.97053036625212,32.83257542863278],[-116.97053036625212,32.78397172648751]]]}},{"type":"Feature","properties":{"name":"Southwest Key Program, Inc. Lemon Grove","description":"","agency":"Southwest Key Program, Inc.","address":"2205 El Prado Avenue","city":"Lemon Grove","state":"Calfornia","zip":"94145","source":"propublica","marker-color":"#DE5B49","marker-size":"medium","marker-symbol":"c"},"geometry":{"type":"Polygon","coordinates":[[[-117.06607226625212,32.704438813261426],[-117.0082443337479,32.704438813261426],[-117.0082443337479,32.753085950244],[-117.06607226625212,32.753085950244],[-117.06607226625212,32.704438813261426]]]}},{"type":"Feature","properties":{"name":"Unnamed facility operated by Southwest Key Program, Inc.","description":"","agency":"Southwest Key Program, Inc.","address":"9780 Dunbar Lane","city":"El Cajon","state":"California","zip":"92021","source":"propublica","marker-color":"#DE5B49","marker-size":"medium","marker-symbol":"c"},"geometry":{"type":"Polygon","coordinates":[[[-116.85216456625211,32.83809793021804],[-116.79433663374787,32.83809793021804],[-116.79433663374787,32.88667201922505],[-116.85216456625211,32.88667201922505],[-116.85216456625211,32.83809793021804]]]}},{"type":"Feature","properties":{"name":"BCFS Health and Human Services Fairfield","description":"","agency":"BCFS","address":"2301 Pennsylvania Avenue","city":"Fairfield","state":"California","zip":"94533","source":"propublica","marker-color":"#DE5B49","marker-size":"medium","marker-symbol":"c"},"geometry":{"type":"Polygon","coordinates":[[[-122.0791432662521,38.2486935118044],[-122.02131533374789,38.2486935118044],[-122.02131533374789,38.29409339287621],[-122.0791432662521,38.29409339287621],[-122.0791432662521,38.2486935118044]]]}},{"type":"Feature","properties":{"name":"Crittenton Foster Care and Adoption Agency","description":"","agency":"Crittenton Services for Children and Families ","address":"801 E. Chapman Avenue","city":"Fullerton","state":"California","zip":"92831","source":"propublica","marker-color":"#DE5B49","marker-size":"medium","marker-symbol":"c"},"geometry":{"type":"Polygon","coordinates":[[[-117.9399458662521,33.85055592048144],[-117.88211793374789,33.85055592048144],[-117.88211793374789,33.89856812716123],[-117.9399458662521,33.89856812716123],[-117.9399458662521,33.85055592048144]]]}},{"type":"Feature","properties":{"name":"David & Margaret Youth and Family Services","description":"","agency":"David & Margaret Youth and Family Services","address":"1350 3rd Street","city":"La Verne","state":"California","zip":"91750","source":"propublica","marker-color":"#DE5B49","marker-size":"medium","marker-symbol":"c"},"geometry":{"type":"Polygon","coordinates":[[[-117.81439246625212,34.07847068828455],[-117.75656453374789,34.07847068828455],[-117.75656453374789,34.12635433759975],[-117.81439246625212,34.12635433759975],[-117.81439246625212,34.07847068828455]]]}},{"type":"Feature","properties":{"name":"Nuevo Amanecer Latino Children's Services","description":"","agency":"Nuevo Amanecer Latino Children's Services","address":"5400 Pomona Boulevard","city":"Los Angeles ","state":"California","zip":"90022","source":"propublica","marker-color":"#DE5B49","marker-size":"medium","marker-symbol":"c"},"geometry":{"type":"Polygon","coordinates":[[[-118.17843686625211,34.00921081816046],[-118.1206089337479,34.00921081816046],[-118.1206089337479,34.05713361429061],[-118.17843686625211,34.05713361429061],[-118.17843686625211,34.00921081816046]]]}},{"type":"Feature","properties":{"name":"Southwest Key Program, Inc. Pleasant Hill","description":"","agency":"Southwest Key","address":"808 Grayson Road","city":"Pleasant Hill","state":"California","zip":"94523","source":"propublica","marker-color":"#DE5B49","marker-size":"medium","marker-symbol":"c"},"geometry":{"type":"Polygon","coordinates":[[[-122.11820636625214,37.924503184716016],[-122.06037843374791,37.924503184716016],[-122.06037843374791,37.970104939625486],[-122.11820636625214,37.970104939625486],[-122.11820636625214,37.924503184716016]]]}},{"type":"Feature","properties":{"name":"Yolo County Juvenile Detention Facility","description":"","agency":"Yolo County","address":"2880 East Gibson Road","city":"Woodland","state":"California","zip":"95776","source":"propublica","marker-color":"#DE5B49","marker-size":"medium","marker-symbol":"c"},"geometry":{"type":"Polygon","coordinates":[[[-121.75865696625212,38.63775959489726],[-121.70082903374791,38.63775959489726],[-121.70082903374791,38.68291528738701],[-121.75865696625212,38.68291528738701],[-121.75865696625212,38.63775959489726]]]}},{"type":"Feature","properties":{"name":"International Christian Adoptions","description":"","agency":"International Christian Adoptions","address":"6248 Birdcage Street","city":"Citrus Heights","state":"California ","zip":"95610","source":"propublica","marker-color":"#DE5B49","marker-size":"medium","marker-symbol":"c"},"geometry":{"type":"Polygon","coordinates":[[[-121.30463186625212,38.65721922841393],[-121.24680393374788,38.65721922841393],[-121.24680393374788,38.702362652784586],[-121.30463186625212,38.702362652784586],[-121.30463186625212,38.65721922841393]]]}}]}
